{
"type": "FeatureCollection",
"features": [
{ "type": "Feature", "properties": { "id": 1, "name": "River Street", "area": "Clerkenwell", "nbikes": 4, "nempty": 14 }, "geometry": { "type": "Point", "coordinates": [ -0.109970527, 51.52916347 ] } },
{ "type": "Feature", "properties": { "id": 2, "name": "Phillimore Gardens", "area": "Kensington", "nbikes": 2, "nempty": 34 }, "geometry": { "type": "Point", "coordinates": [ -0.197574246, 51.49960695 ] } },
{ "type": "Feature", "properties": { "id": 3, "name": "Christopher Street", "area": "Liverpool Street", "nbikes": 0, "nempty": 32 }, "geometry": { "type": "Point", "coordinates": [ -0.084605692, 51.52128377 ] } },
{ "type": "Feature", "properties": { "id": 4, "name": "St. Chad's Street", "area": "King's Cross", "nbikes": 4, "nempty": 19 }, "geometry": { "type": "Point", "coordinates": [ -0.120973687, 51.53005939 ] } },
{ "type": "Feature", "properties": { "id": 5, "name": "Sedding Street", "area": "Sloane Square", "nbikes": 15, "nempty": 12 }, "geometry": { "type": "Point", "coordinates": [ -0.156876, 51.49313 ] } },
{ "type": "Feature", "properties": { "id": 6, "name": "Broadcasting House", "area": "Marylebone", "nbikes": 0, "nempty": 18 }, "geometry": { "type": "Point", "coordinates": [ -0.144228881, 51.51811784 ] } },
{ "type": "Feature", "properties": { "id": 7, "name": "Charlbert Street", "area": "St. John's Wood", "nbikes": 15, "nempty": 0 }, "geometry": { "type": "Point", "coordinates": [ -0.1680743, 51.53430039 ] } },
{ "type": "Feature", "properties": { "id": 8, "name": "Lodge Road", "area": "St. John's Wood", "nbikes": 5, "nempty": 13 }, "geometry": { "type": "Point", "coordinates": [ -0.170134484, 51.52834133 ] } },
{ "type": "Feature", "properties": { "id": 9, "name": "New Globe Walk", "area": "Bankside", "nbikes": 3, "nempty": 16 }, "geometry": { "type": "Point", "coordinates": [ -0.096440751, 51.5073853 ] } },
{ "type": "Feature", "properties": { "id": 10, "name": "Park Street", "area": "Bankside", "nbikes": 1, "nempty": 17 }, "geometry": { "type": "Point", "coordinates": [ -0.092754157, 51.50597426 ] } },
{ "type": "Feature", "properties": { "id": 11, "name": "Brunswick Square", "area": "Bloomsbury", "nbikes": 0, "nempty": 23 }, "geometry": { "type": "Point", "coordinates": [ -0.122502346, 51.52395143 ] } },
{ "type": "Feature", "properties": { "id": 12, "name": "Malet Street", "area": "Bloomsbury", "nbikes": 0, "nempty": 47 }, "geometry": { "type": "Point", "coordinates": [ -0.130431727, 51.52168078 ] } },
{ "type": "Feature", "properties": { "id": 13, "name": "Scala Street", "area": "Fitzrovia", "nbikes": 0, "nempty": 20 }, "geometry": { "type": "Point", "coordinates": [ -0.136039674, 51.51991453 ] } },
{ "type": "Feature", "properties": { "id": 14, "name": "Belgrove Street", "area": "King's Cross", "nbikes": 12, "nempty": 5 }, "geometry": { "type": "Point", "coordinates": [ -0.123616824, 51.52994371 ] } },
{ "type": "Feature", "properties": { "id": 15, "name": "Great Russell Street", "area": "Bloomsbury", "nbikes": 0, "nempty": 26 }, "geometry": { "type": "Point", "coordinates": [ -0.127854211, 51.51772703 ] } },
{ "type": "Feature", "properties": { "id": 16, "name": "Cartwright Gardens", "area": "Bloomsbury", "nbikes": 8, "nempty": 13 }, "geometry": { "type": "Point", "coordinates": [ -0.125979294, 51.52635795 ] } },
{ "type": "Feature", "properties": { "id": 17, "name": "Hatton Wall", "area": "Holborn", "nbikes": 4, "nempty": 22 }, "geometry": { "type": "Point", "coordinates": [ -0.109006325, 51.5216612 ] } },
{ "type": "Feature", "properties": { "id": 18, "name": "Drury Lane", "area": "Covent Garden", "nbikes": 1, "nempty": 26 }, "geometry": { "type": "Point", "coordinates": [ -0.12221963, 51.51477076 ] } },
{ "type": "Feature", "properties": { "id": 19, "name": "Taviton Street", "area": "Bloomsbury", "nbikes": 6, "nempty": 23 }, "geometry": { "type": "Point", "coordinates": [ -0.131161087, 51.52505093 ] } },
{ "type": "Feature", "properties": { "id": 20, "name": "Drummond Street", "area": "Euston", "nbikes": 19, "nempty": 9 }, "geometry": { "type": "Point", "coordinates": [ -0.135273468, 51.52773634 ] } },
{ "type": "Feature", "properties": { "id": 21, "name": "Hampstead Road (Cartmel)", "area": "Euston", "nbikes": 8, "nempty": 8 }, "geometry": { "type": "Point", "coordinates": [ -0.13884627, 51.53007835 ] } },
{ "type": "Feature", "properties": { "id": 22, "name": "Northington Street", "area": "Holborn", "nbikes": 2, "nempty": 16 }, "geometry": { "type": "Point", "coordinates": [ -0.114079481, 51.5222641 ] } },
{ "type": "Feature", "properties": { "id": 23, "name": "Red Lion Square", "area": "Holborn", "nbikes": 2, "nempty": 14 }, "geometry": { "type": "Point", "coordinates": [ -0.119123345, 51.51943538 ] } },
{ "type": "Feature", "properties": { "id": 24, "name": "British Museum", "area": "Bloomsbury", "nbikes": 0, "nempty": 35 }, "geometry": { "type": "Point", "coordinates": [ -0.124678402, 51.51908011 ] } },
{ "type": "Feature", "properties": { "id": 25, "name": "Doric Way", "area": "Somers Town", "nbikes": 17, "nempty": 14 }, "geometry": { "type": "Point", "coordinates": [ -0.132250369, 51.5288338 ] } },
{ "type": "Feature", "properties": { "id": 26, "name": "Ampton Street", "area": "Clerkenwell", "nbikes": 10, "nempty": 11 }, "geometry": { "type": "Point", "coordinates": [ -0.11829517, 51.52728093 ] } },
{ "type": "Feature", "properties": { "id": 27, "name": "Bouverie Street", "area": "Temple", "nbikes": 0, "nempty": 33 }, "geometry": { "type": "Point", "coordinates": [ -0.107927706, 51.51382102 ] } },
{ "type": "Feature", "properties": { "id": 28, "name": "Bolsover Street", "area": "Fitzrovia", "nbikes": 0, "nempty": 18 }, "geometry": { "type": "Point", "coordinates": [ -0.143613641, 51.52351808 ] } },
{ "type": "Feature", "properties": { "id": 29, "name": "Hereford Road", "area": "Bayswater", "nbikes": 10, "nempty": 11 }, "geometry": { "type": "Point", "coordinates": [ -0.193487, 51.513735 ] } },
{ "type": "Feature", "properties": { "id": 30, "name": "Windsor Terrace", "area": "Hoxton", "nbikes": 17, "nempty": 7 }, "geometry": { "type": "Point", "coordinates": [ -0.093421615, 51.52915444 ] } },
{ "type": "Feature", "properties": { "id": 31, "name": "Fanshaw Street", "area": "Hoxton", "nbikes": 21, "nempty": 13 }, "geometry": { "type": "Point", "coordinates": [ -0.083353323, 51.52953709 ] } },
{ "type": "Feature", "properties": { "id": 32, "name": "Leonard Circus", "area": "Shoreditch", "nbikes": 7, "nempty": 36 }, "geometry": { "type": "Point", "coordinates": [ -0.084439283, 51.52469624 ] } },
{ "type": "Feature", "properties": { "id": 34, "name": "Pancras Road", "area": "King's Cross", "nbikes": 12, "nempty": 4 }, "geometry": { "type": "Point", "coordinates": [ -0.129386874, 51.5341235 ] } },
{ "type": "Feature", "properties": { "id": 36, "name": "De Vere Gardens", "area": "Kensington", "nbikes": 4, "nempty": 24 }, "geometry": { "type": "Point", "coordinates": [ -0.184980612, 51.50173726 ] } },
{ "type": "Feature", "properties": { "id": 37, "name": "Penywern Road", "area": "Earl's Court", "nbikes": 15, "nempty": 2 }, "geometry": { "type": "Point", "coordinates": [ -0.192369256, 51.49159394 ] } },
{ "type": "Feature", "properties": { "id": 38, "name": "Abingdon Villas", "area": "Kensington", "nbikes": 4, "nempty": 13 }, "geometry": { "type": "Point", "coordinates": [ -0.197245586, 51.4973875 ] } },
{ "type": "Feature", "properties": { "id": 39, "name": "Shoreditch High Street", "area": "Shoreditch", "nbikes": 23, "nempty": 17 }, "geometry": { "type": "Point", "coordinates": [ -0.078130921, 51.5263778 ] } },
{ "type": "Feature", "properties": { "id": 40, "name": "Commercial Street", "area": "Shoreditch", "nbikes": 13, "nempty": 3 }, "geometry": { "type": "Point", "coordinates": [ -0.0755789, 51.52127071 ] } },
{ "type": "Feature", "properties": { "id": 41, "name": "Sun Street", "area": "Liverpool Street", "nbikes": 0, "nempty": 24 }, "geometry": { "type": "Point", "coordinates": [ -0.083911168, 51.52001715 ] } },
{ "type": "Feature", "properties": { "id": 42, "name": "Wenlock Road", "area": "Hoxton", "nbikes": 27, "nempty": 1 }, "geometry": { "type": "Point", "coordinates": [ -0.093903825, 51.53099181 ] } },
{ "type": "Feature", "properties": { "id": 43, "name": "Crawford Street", "area": "Marylebone", "nbikes": 17, "nempty": 1 }, "geometry": { "type": "Point", "coordinates": [ -0.157183945, 51.52026 ] } },
{ "type": "Feature", "properties": { "id": 44, "name": "Bruton Street", "area": "Mayfair", "nbikes": 0, "nempty": 21 }, "geometry": { "type": "Point", "coordinates": [ -0.144165239, 51.51073687 ] } },
{ "type": "Feature", "properties": { "id": 45, "name": "Boston Place", "area": "Marylebone", "nbikes": 23, "nempty": 2 }, "geometry": { "type": "Point", "coordinates": [ -0.162298, 51.522511 ] } },
{ "type": "Feature", "properties": { "id": 46, "name": "Nesham Street", "area": "Wapping", "nbikes": 15, "nempty": 0 }, "geometry": { "type": "Point", "coordinates": [ -0.06691, 51.507131 ] } },
{ "type": "Feature", "properties": { "id": 47, "name": "Warwick Avenue Station", "area": "Maida Vale", "nbikes": 19, "nempty": 0 }, "geometry": { "type": "Point", "coordinates": [ -0.183846408, 51.52334476 ] } },
{ "type": "Feature", "properties": { "id": 48, "name": "Godliman Street", "area": "St. Paul's", "nbikes": 0, "nempty": 25 }, "geometry": { "type": "Point", "coordinates": [ -0.099141408, 51.51248445 ] } },
{ "type": "Feature", "properties": { "id": 49, "name": "Curzon Street", "area": "Mayfair", "nbikes": 0, "nempty": 16 }, "geometry": { "type": "Point", "coordinates": [ -0.145904427, 51.50706909 ] } },
{ "type": "Feature", "properties": { "id": 50, "name": "East Road", "area": "Hoxton", "nbikes": 5, "nempty": 22 }, "geometry": { "type": "Point", "coordinates": [ -0.087459376, 51.52867339 ] } },
{ "type": "Feature", "properties": { "id": 51, "name": "Finsbury Library", "area": "Finsbury", "nbikes": 8, "nempty": 21 }, "geometry": { "type": "Point", "coordinates": [ -0.104298194, 51.52671796 ] } },
{ "type": "Feature", "properties": { "id": 52, "name": "Roscoe Street", "area": "St. Luke's", "nbikes": 1, "nempty": 17 }, "geometry": { "type": "Point", "coordinates": [ -0.094934859, 51.52295439 ] } },
{ "type": "Feature", "properties": { "id": 53, "name": "Grafton Street", "area": "Mayfair", "nbikes": 0, "nempty": 18 }, "geometry": { "type": "Point", "coordinates": [ -0.143495266, 51.5099923 ] } },
{ "type": "Feature", "properties": { "id": 54, "name": "Golden Lane", "area": "Barbican", "nbikes": 0, "nempty": 25 }, "geometry": { "type": "Point", "coordinates": [ -0.094475072, 51.52174785 ] } },
{ "type": "Feature", "properties": { "id": 55, "name": "Finsbury Circus", "area": "Liverpool Street", "nbikes": 0, "nempty": 29 }, "geometry": { "type": "Point", "coordinates": [ -0.086685542, 51.51707521 ] } },
{ "type": "Feature", "properties": { "id": 56, "name": "Paddington Street", "area": "Marylebone", "nbikes": 10, "nempty": 2 }, "geometry": { "type": "Point", "coordinates": [ -0.154701411, 51.52058381 ] } },
{ "type": "Feature", "properties": { "id": 57, "name": "Guilford Street", "area": "Bloomsbury", "nbikes": 0, "nempty": 38 }, "geometry": { "type": "Point", "coordinates": [ -0.120202614, 51.52334672 ] } },
{ "type": "Feature", "properties": { "id": 58, "name": "New Inn Yard", "area": "Shoreditch", "nbikes": 9, "nempty": 10 }, "geometry": { "type": "Point", "coordinates": [ -0.079248081, 51.52452699 ] } },
{ "type": "Feature", "properties": { "id": 59, "name": "Rodney Street", "area": "Angel", "nbikes": 4, "nempty": 25 }, "geometry": { "type": "Point", "coordinates": [ -0.114329032, 51.53176825 ] } },
{ "type": "Feature", "properties": { "id": 60, "name": "Lisson Grove", "area": "St. John's Wood", "nbikes": 8, "nempty": 10 }, "geometry": { "type": "Point", "coordinates": [ -0.172190727, 51.52644828 ] } },
{ "type": "Feature", "properties": { "id": 61, "name": "Great Dover Street", "area": "Borough", "nbikes": 29, "nempty": 3 }, "geometry": { "type": "Point", "coordinates": [ -0.089446947, 51.49738251 ] } },
{ "type": "Feature", "properties": { "id": 62, "name": "Cotton Garden Estate", "area": "Kennington", "nbikes": 14, "nempty": 10 }, "geometry": { "type": "Point", "coordinates": [ -0.106323685, 51.4907579 ] } },
{ "type": "Feature", "properties": { "id": 63, "name": "Murray Grove", "area": "Hoxton", "nbikes": 17, "nempty": 10 }, "geometry": { "type": "Point", "coordinates": [ -0.089782579, 51.53089041 ] } },
{ "type": "Feature", "properties": { "id": 64, "name": "William IV Street", "area": "Strand", "nbikes": 8, "nempty": 13 }, "geometry": { "type": "Point", "coordinates": [ -0.124749274, 51.50946212 ] } },
{ "type": "Feature", "properties": { "id": 65, "name": "Gower Place", "area": "Euston", "nbikes": 0, "nempty": 17 }, "geometry": { "type": "Point", "coordinates": [ -0.13518856, 51.52522753 ] } },
{ "type": "Feature", "properties": { "id": 66, "name": "Holborn Circus", "area": "Holborn", "nbikes": 0, "nempty": 37 }, "geometry": { "type": "Point", "coordinates": [ -0.108657431, 51.51795029 ] } },
{ "type": "Feature", "properties": { "id": 67, "name": "Hatton Garden", "area": "Holborn", "nbikes": 1, "nempty": 27 }, "geometry": { "type": "Point", "coordinates": [ -0.108028472, 51.51882555 ] } },
{ "type": "Feature", "properties": { "id": 68, "name": "Theobalds Road", "area": "Holborn", "nbikes": 0, "nempty": 24 }, "geometry": { "type": "Point", "coordinates": [ -0.116688468, 51.52059681 ] } },
{ "type": "Feature", "properties": { "id": 69, "name": "Euston Road", "area": "Euston", "nbikes": 3, "nempty": 20 }, "geometry": { "type": "Point", "coordinates": [ -0.134407652, 51.5262363 ] } },
{ "type": "Feature", "properties": { "id": 70, "name": "Calshot Street", "area": "King's Cross", "nbikes": 24, "nempty": 0 }, "geometry": { "type": "Point", "coordinates": [ -0.117069978, 51.53136059 ] } },
{ "type": "Feature", "properties": { "id": 71, "name": "Newgate Street", "area": "St. Paul's", "nbikes": 4, "nempty": 28 }, "geometry": { "type": "Point", "coordinates": [ -0.098850915, 51.5154186 ] } },
{ "type": "Feature", "properties": { "id": 72, "name": "Farringdon Lane", "area": "Clerkenwell", "nbikes": 8, "nempty": 8 }, "geometry": { "type": "Point", "coordinates": [ -0.108340165, 51.52352001 ] } },
{ "type": "Feature", "properties": { "id": 73, "name": "Old Street Station", "area": "St. Luke's", "nbikes": 1, "nempty": 36 }, "geometry": { "type": "Point", "coordinates": [ -0.088486188, 51.52572618 ] } },
{ "type": "Feature", "properties": { "id": 74, "name": "Vauxhall Cross", "area": "Vauxhall", "nbikes": 14, "nempty": 2 }, "geometry": { "type": "Point", "coordinates": [ -0.124469948, 51.48591714 ] } },
{ "type": "Feature", "properties": { "id": 75, "name": "Torrens Street", "area": "Angel", "nbikes": 3, "nempty": 16 }, "geometry": { "type": "Point", "coordinates": [ -0.105480698, 51.53219984 ] } },
{ "type": "Feature", "properties": { "id": 76, "name": "Longford Street", "area": "Regent's Park", "nbikes": 5, "nempty": 16 }, "geometry": { "type": "Point", "coordinates": [ -0.144083893, 51.52559505 ] } },
{ "type": "Feature", "properties": { "id": 77, "name": "Russell Square Station", "area": "Bloomsbury", "nbikes": 14, "nempty": 10 }, "geometry": { "type": "Point", "coordinates": [ -0.124121774, 51.52341837 ] } },
{ "type": "Feature", "properties": { "id": 78, "name": "Sadlers Sports Centre", "area": "Finsbury", "nbikes": 6, "nempty": 10 }, "geometry": { "type": "Point", "coordinates": [ -0.099489485, 51.52486887 ] } },
{ "type": "Feature", "properties": { "id": 80, "name": "Webber Street", "area": "Southwark", "nbikes": 10, "nempty": 14 }, "geometry": { "type": "Point", "coordinates": [ -0.102091246, 51.50069361 ] } },
{ "type": "Feature", "properties": { "id": 81, "name": "Great Titchfield Street", "area": "Fitzrovia", "nbikes": 0, "nempty": 19 }, "geometry": { "type": "Point", "coordinates": [ -0.141327271, 51.52025302 ] } },
{ "type": "Feature", "properties": { "id": 82, "name": "Chancery Lane", "area": "Holborn", "nbikes": 0, "nempty": 15 }, "geometry": { "type": "Point", "coordinates": [ -0.111257, 51.514274 ] } },
{ "type": "Feature", "properties": { "id": 83, "name": "Panton Street", "area": "West End", "nbikes": 0, "nempty": 19 }, "geometry": { "type": "Point", "coordinates": [ -0.131510949, 51.50963938 ] } },
{ "type": "Feature", "properties": { "id": 84, "name": "Breams Buildings", "area": "Holborn", "nbikes": 0, "nempty": 25 }, "geometry": { "type": "Point", "coordinates": [ -0.111778348, 51.51593725 ] } },
{ "type": "Feature", "properties": { "id": 85, "name": "Tanner Street", "area": "Bermondsey", "nbikes": 12, "nempty": 6 }, "geometry": { "type": "Point", "coordinates": [ -0.078600401, 51.50064702 ] } },
{ "type": "Feature", "properties": { "id": 86, "name": "Sancroft Street", "area": "Vauxhall", "nbikes": 19, "nempty": 5 }, "geometry": { "type": "Point", "coordinates": [ -0.115156562, 51.48947903 ] } },
{ "type": "Feature", "properties": { "id": 87, "name": "Devonshire Square", "area": "Liverpool Street", "nbikes": 0, "nempty": 16 }, "geometry": { "type": "Point", "coordinates": [ -0.079684557, 51.51646835 ] } },
{ "type": "Feature", "properties": { "id": 88, "name": "Bayley Street", "area": "Bloomsbury", "nbikes": 0, "nempty": 25 }, "geometry": { "type": "Point", "coordinates": [ -0.132053392, 51.51858757 ] } },
{ "type": "Feature", "properties": { "id": 89, "name": "Tavistock Place", "area": "Bloomsbury", "nbikes": 11, "nempty": 5 }, "geometry": { "type": "Point", "coordinates": [ -0.123509611, 51.5262503 ] } },
{ "type": "Feature", "properties": { "id": 90, "name": "Harrington Square", "area": "Camden Town", "nbikes": 18, "nempty": 9 }, "geometry": { "type": "Point", "coordinates": [ -0.139174593, 51.53301907 ] } },
{ "type": "Feature", "properties": { "id": 91, "name": "Walnut Tree Walk", "area": "Vauxhall", "nbikes": 18, "nempty": 1 }, "geometry": { "type": "Point", "coordinates": [ -0.111014912, 51.49368637 ] } },
{ "type": "Feature", "properties": { "id": 92, "name": "Borough Road", "area": "Elephant & Castle", "nbikes": 26, "nempty": 15 }, "geometry": { "type": "Point", "coordinates": [ -0.100440521, 51.49889832 ] } },
{ "type": "Feature", "properties": { "id": 93, "name": "Cloudesley Road", "area": "Angel", "nbikes": 19, "nempty": 18 }, "geometry": { "type": "Point", "coordinates": [ -0.109025404, 51.53440868 ] } },
{ "type": "Feature", "properties": { "id": 94, "name": "Bricklayers Arms", "area": "Borough", "nbikes": 27, "nempty": 1 }, "geometry": { "type": "Point", "coordinates": [ -0.085814489, 51.49506109 ] } },
{ "type": "Feature", "properties": { "id": 95, "name": "Aldersgate Street", "area": "Barbican", "nbikes": 0, "nempty": 14 }, "geometry": { "type": "Point", "coordinates": [ -0.097340162, 51.5208417 ] } },
{ "type": "Feature", "properties": { "id": 96, "name": "Falkirk Street", "area": "Hoxton", "nbikes": 16, "nempty": 9 }, "geometry": { "type": "Point", "coordinates": [ -0.078505384, 51.53095071 ] } },
{ "type": "Feature", "properties": { "id": 97, "name": "Gloucester Road (North)", "area": "Kensington", "nbikes": 11, "nempty": 7 }, "geometry": { "type": "Point", "coordinates": [ -0.183834706, 51.49792478 ] } },
{ "type": "Feature", "properties": { "id": 98, "name": "Hampstead Road", "area": "Euston", "nbikes": 20, "nempty": 34 }, "geometry": { "type": "Point", "coordinates": [ -0.138231303, 51.52554222 ] } },
{ "type": "Feature", "properties": { "id": 99, "name": "Old Quebec Street", "area": "Marylebone", "nbikes": 0, "nempty": 16 }, "geometry": { "type": "Point", "coordinates": [ -0.158264483, 51.51457763 ] } },
{ "type": "Feature", "properties": { "id": 100, "name": "Albert Embankment", "area": "Vauxhall", "nbikes": 16, "nempty": 8 }, "geometry": { "type": "Point", "coordinates": [ -0.122806861, 51.49043573 ] } },
{ "type": "Feature", "properties": { "id": 101, "name": "Queen Street", "area": "Bank", "nbikes": 3, "nempty": 18 }, "geometry": { "type": "Point", "coordinates": [ -0.0929401, 51.51155322 ] } },
{ "type": "Feature", "properties": { "id": 102, "name": "Jewry Street", "area": "Aldgate", "nbikes": 0, "nempty": 17 }, "geometry": { "type": "Point", "coordinates": [ -0.076793375, 51.51340693 ] } },
{ "type": "Feature", "properties": { "id": 103, "name": "Vicarage Gate", "area": "Kensington", "nbikes": 9, "nempty": 9 }, "geometry": { "type": "Point", "coordinates": [ -0.192538767, 51.50472376 ] } },
{ "type": "Feature", "properties": { "id": 104, "name": "Crosswall", "area": "Tower", "nbikes": 14, "nempty": 18 }, "geometry": { "type": "Point", "coordinates": [ -0.077121322, 51.51159481 ] } },
{ "type": "Feature", "properties": { "id": 105, "name": "Westbourne Grove", "area": "Bayswater", "nbikes": 15, "nempty": 7 }, "geometry": { "type": "Point", "coordinates": [ -0.190240716, 51.51552971 ] } },
{ "type": "Feature", "properties": { "id": 106, "name": "Woodstock Street", "area": "Mayfair", "nbikes": 0, "nempty": 21 }, "geometry": { "type": "Point", "coordinates": [ -0.147301667, 51.51410514 ] } },
{ "type": "Feature", "properties": { "id": 107, "name": "Finsbury Leisure Centre", "area": "St. Luke's", "nbikes": 9, "nempty": 9 }, "geometry": { "type": "Point", "coordinates": [ -0.096317627, 51.52600832 ] } },
{ "type": "Feature", "properties": { "id": 108, "name": "Abbey Orchard Street", "area": "Westminster", "nbikes": 1, "nempty": 27 }, "geometry": { "type": "Point", "coordinates": [ -0.132102166, 51.49812559 ] } },
{ "type": "Feature", "properties": { "id": 109, "name": "Soho Square", "area": "Soho", "nbikes": 0, "nempty": 29 }, "geometry": { "type": "Point", "coordinates": [ -0.132328837, 51.51563144 ] } },
{ "type": "Feature", "properties": { "id": 110, "name": "Wellington Road", "area": "St. John's Wood", "nbikes": 10, "nempty": 7 }, "geometry": { "type": "Point", "coordinates": [ -0.172528678, 51.53304322 ] } },
{ "type": "Feature", "properties": { "id": 111, "name": "Park Lane", "area": "Hyde Park", "nbikes": 1, "nempty": 26 }, "geometry": { "type": "Point", "coordinates": [ -0.157275636, 51.5100172 ] } },
{ "type": "Feature", "properties": { "id": 112, "name": "Stonecutter Street", "area": "Holborn", "nbikes": 2, "nempty": 43 }, "geometry": { "type": "Point", "coordinates": [ -0.105270275, 51.51580998 ] } },
{ "type": "Feature", "properties": { "id": 113, "name": "Gloucester Road (Central)", "area": "South Kensington", "nbikes": 13, "nempty": 3 }, "geometry": { "type": "Point", "coordinates": [ -0.183289032, 51.49646288 ] } },
{ "type": "Feature", "properties": { "id": 114, "name": "Park Road (Baker Street)", "area": "Regent's Park", "nbikes": 9, "nempty": 11 }, "geometry": { "type": "Point", "coordinates": [ -0.158963647, 51.52451738 ] } },
{ "type": "Feature", "properties": { "id": 115, "name": "Braham Street", "area": "Aldgate", "nbikes": 1, "nempty": 31 }, "geometry": { "type": "Point", "coordinates": [ -0.073537654, 51.51423368 ] } },
{ "type": "Feature", "properties": { "id": 116, "name": "Little Argyll Street", "area": "West End", "nbikes": 0, "nempty": 21 }, "geometry": { "type": "Point", "coordinates": [ -0.141423695, 51.51449962 ] } },
{ "type": "Feature", "properties": { "id": 117, "name": "Lollard Street", "area": "Vauxhall", "nbikes": 20, "nempty": 5 }, "geometry": { "type": "Point", "coordinates": [ -0.114934001, 51.49288067 ] } },
{ "type": "Feature", "properties": { "id": 118, "name": "Rochester Row", "area": "Westminster", "nbikes": 12, "nempty": 1 }, "geometry": { "type": "Point", "coordinates": [ -0.13547809, 51.49582705 ] } },
{ "type": "Feature", "properties": { "id": 119, "name": "Bath Street", "area": "St. Luke's", "nbikes": 2, "nempty": 16 }, "geometry": { "type": "Point", "coordinates": [ -0.090847761, 51.52589324 ] } },
{ "type": "Feature", "properties": { "id": 120, "name": "The Guildhall", "area": "Guildhall", "nbikes": 0, "nempty": 17 }, "geometry": { "type": "Point", "coordinates": [ -0.093080779, 51.51573534 ] } },
{ "type": "Feature", "properties": { "id": 121, "name": "Baker Street", "area": "Marylebone", "nbikes": 0, "nempty": 20 }, "geometry": { "type": "Point", "coordinates": [ -0.156166631, 51.51891348 ] } },
{ "type": "Feature", "properties": { "id": 122, "name": "Norton Folgate", "area": "Liverpool Street", "nbikes": 3, "nempty": 18 }, "geometry": { "type": "Point", "coordinates": [ -0.078869751, 51.52111369 ] } },
{ "type": "Feature", "properties": { "id": 123, "name": "St. John Street", "area": "Finsbury", "nbikes": 5, "nempty": 13 }, "geometry": { "type": "Point", "coordinates": [ -0.104724625, 51.52836014 ] } },
{ "type": "Feature", "properties": { "id": 124, "name": "Eaton Square", "area": "Belgravia", "nbikes": 5, "nempty": 14 }, "geometry": { "type": "Point", "coordinates": [ -0.150905245, 51.49654462 ] } },
{ "type": "Feature", "properties": { "id": 125, "name": "Borough High Street", "area": "The Borough", "nbikes": 3, "nempty": 17 }, "geometry": { "type": "Point", "coordinates": [ -0.094524319, 51.50069491 ] } },
{ "type": "Feature", "properties": { "id": 126, "name": "Museum of London", "area": "Barbican", "nbikes": 0, "nempty": 52 }, "geometry": { "type": "Point", "coordinates": [ -0.096496865, 51.51782144 ] } },
{ "type": "Feature", "properties": { "id": 127, "name": "Wood Street", "area": "Guildhall", "nbikes": 0, "nempty": 16 }, "geometry": { "type": "Point", "coordinates": [ -0.09388536, 51.51700801 ] } },
{ "type": "Feature", "properties": { "id": 128, "name": "Emperor's Gate", "area": "South Kensington", "nbikes": 21, "nempty": 1 }, "geometry": { "type": "Point", "coordinates": [ -0.185296516, 51.49536226 ] } },
{ "type": "Feature", "properties": { "id": 129, "name": "Golden Square", "area": "Soho", "nbikes": 0, "nempty": 17 }, "geometry": { "type": "Point", "coordinates": [ -0.137043852, 51.5118973 ] } },
{ "type": "Feature", "properties": { "id": 130, "name": "Tower Gardens", "area": "Tower", "nbikes": 9, "nempty": 14 }, "geometry": { "type": "Point", "coordinates": [ -0.075459482, 51.50950627 ] } },
{ "type": "Feature", "properties": { "id": 131, "name": "Eversholt Street", "area": "Camden Town", "nbikes": 12, "nempty": 4 }, "geometry": { "type": "Point", "coordinates": [ -0.136792671, 51.53300545 ] } },
{ "type": "Feature", "properties": { "id": 132, "name": "Bethnal Green Road", "area": "Shoreditch", "nbikes": 14, "nempty": 22 }, "geometry": { "type": "Point", "coordinates": [ -0.074754872, 51.52364804 ] } },
{ "type": "Feature", "properties": { "id": 133, "name": "Derry Street", "area": "Kensington", "nbikes": 0, "nempty": 17 }, "geometry": { "type": "Point", "coordinates": [ -0.191462381, 51.50136494 ] } },
{ "type": "Feature", "properties": { "id": 134, "name": "Wapping High Street", "area": "Wapping", "nbikes": 20, "nempty": 0 }, "geometry": { "type": "Point", "coordinates": [ -0.06797, 51.504904 ] } },
{ "type": "Feature", "properties": { "id": 135, "name": "Clerkenwell Green", "area": "Clerkenwell", "nbikes": 2, "nempty": 19 }, "geometry": { "type": "Point", "coordinates": [ -0.104708922, 51.52326004 ] } },
{ "type": "Feature", "properties": { "id": 136, "name": "Queen Victoria Street", "area": "St. Paul's", "nbikes": 0, "nempty": 32 }, "geometry": { "type": "Point", "coordinates": [ -0.097441687, 51.51196176 ] } },
{ "type": "Feature", "properties": { "id": 137, "name": "Bourne Street", "area": "Belgravia", "nbikes": 8, "nempty": 8 }, "geometry": { "type": "Point", "coordinates": [ -0.153319609, 51.49087475 ] } },
{ "type": "Feature", "properties": { "id": 138, "name": "Green Street", "area": "Mayfair", "nbikes": 0, "nempty": 19 }, "geometry": { "type": "Point", "coordinates": [ -0.157436972, 51.51227622 ] } },
{ "type": "Feature", "properties": { "id": 139, "name": "Lambeth Road", "area": "Vauxhall", "nbikes": 6, "nempty": 12 }, "geometry": { "type": "Point", "coordinates": [ -0.117974901, 51.49488108 ] } },
{ "type": "Feature", "properties": { "id": 140, "name": "Finsbury Square", "area": "Moorgate", "nbikes": 0, "nempty": 33 }, "geometry": { "type": "Point", "coordinates": [ -0.085634242, 51.52096262 ] } },
{ "type": "Feature", "properties": { "id": 141, "name": "Chapel Place", "area": "Marylebone", "nbikes": 0, "nempty": 29 }, "geometry": { "type": "Point", "coordinates": [ -0.147203711, 51.51530805 ] } },
{ "type": "Feature", "properties": { "id": 142, "name": "West Cromwell Road", "area": "Earl's Court", "nbikes": 19, "nempty": 4 }, "geometry": { "type": "Point", "coordinates": [ -0.198286569, 51.49372451 ] } },
{ "type": "Feature", "properties": { "id": 143, "name": "Pont Street", "area": "Knightsbridge", "nbikes": 15, "nempty": 9 }, "geometry": { "type": "Point", "coordinates": [ -0.161203828, 51.4968865 ] } },
{ "type": "Feature", "properties": { "id": 144, "name": "Kennington Cross", "area": "Kennington", "nbikes": 42, "nempty": 5 }, "geometry": { "type": "Point", "coordinates": [ -0.111435796, 51.48894022 ] } },
{ "type": "Feature", "properties": { "id": 145, "name": "Ilchester Place", "area": "Kensington", "nbikes": 19, "nempty": 4 }, "geometry": { "type": "Point", "coordinates": [ -0.202759212, 51.50074359 ] } },
{ "type": "Feature", "properties": { "id": 146, "name": "Vauxhall Bridge", "area": "Pimlico", "nbikes": 32, "nempty": 3 }, "geometry": { "type": "Point", "coordinates": [ -0.129361842, 51.48836528 ] } },
{ "type": "Feature", "properties": { "id": 147, "name": "Portugal Street", "area": "Holborn", "nbikes": 4, "nempty": 11 }, "geometry": { "type": "Point", "coordinates": [ -0.11614642, 51.51494305 ] } },
{ "type": "Feature", "properties": { "id": 148, "name": "Tachbrook Street", "area": "Victoria", "nbikes": 11, "nempty": 3 }, "geometry": { "type": "Point", "coordinates": [ -0.138364847, 51.49211134 ] } },
{ "type": "Feature", "properties": { "id": 149, "name": "Kennington Road Post Office", "area": "Oval", "nbikes": 17, "nempty": 1 }, "geometry": { "type": "Point", "coordinates": [ -0.110683213, 51.48478899 ] } },
{ "type": "Feature", "properties": { "id": 150, "name": "Holy Trinity Brompton", "area": "Knightsbridge", "nbikes": 1, "nempty": 27 }, "geometry": { "type": "Point", "coordinates": [ -0.168917077, 51.49705603 ] } },
{ "type": "Feature", "properties": { "id": 151, "name": "Chepstow Villas", "area": "Notting Hill", "nbikes": 3, "nempty": 22 }, "geometry": { "type": "Point", "coordinates": [ -0.201554966, 51.51213691 ] } },
{ "type": "Feature", "properties": { "id": 152, "name": "Hampton Street", "area": "Walworth", "nbikes": 16, "nempty": 5 }, "geometry": { "type": "Point", "coordinates": [ -0.101536865, 51.49217002 ] } },
{ "type": "Feature", "properties": { "id": 153, "name": "Bayswater Road", "area": "Hyde Park", "nbikes": 21, "nempty": 5 }, "geometry": { "type": "Point", "coordinates": [ -0.174292825, 51.51183419 ] } },
{ "type": "Feature", "properties": { "id": 154, "name": "Waterloo Station 3", "area": "Waterloo", "nbikes": 26, "nempty": 8 }, "geometry": { "type": "Point", "coordinates": [ -0.11282408, 51.50379168 ] } },
{ "type": "Feature", "properties": { "id": 155, "name": "Lexham Gardens", "area": "Kensington", "nbikes": 12, "nempty": 4 }, "geometry": { "type": "Point", "coordinates": [ -0.191933711, 51.49586666 ] } },
{ "type": "Feature", "properties": { "id": 156, "name": "New Kent Road", "area": "Borough", "nbikes": 30, "nempty": 2 }, "geometry": { "type": "Point", "coordinates": [ -0.092921165, 51.49443626 ] } },
{ "type": "Feature", "properties": { "id": 157, "name": "Wright's Lane", "area": "Kensington", "nbikes": 10, "nempty": 26 }, "geometry": { "type": "Point", "coordinates": [ -0.193068385, 51.50039792 ] } },
{ "type": "Feature", "properties": { "id": 158, "name": "Trebovir Road", "area": "Earl's Court", "nbikes": 7, "nempty": 11 }, "geometry": { "type": "Point", "coordinates": [ -0.196170309, 51.49085368 ] } },
{ "type": "Feature", "properties": { "id": 159, "name": "Great Marlborough Street", "area": "Soho", "nbikes": 0, "nempty": 38 }, "geometry": { "type": "Point", "coordinates": [ -0.137841333, 51.51461995 ] } },
{ "type": "Feature", "properties": { "id": 160, "name": "Waterloo Place", "area": "St. James's", "nbikes": 0, "nempty": 20 }, "geometry": { "type": "Point", "coordinates": [ -0.131773845, 51.50663341 ] } },
{ "type": "Feature", "properties": { "id": 161, "name": "Guildhouse Street", "area": "Victoria", "nbikes": 4, "nempty": 12 }, "geometry": { "type": "Point", "coordinates": [ -0.141334487, 51.49234577 ] } },
{ "type": "Feature", "properties": { "id": 162, "name": "Southampton Place", "area": "Holborn", "nbikes": 0, "nempty": 20 }, "geometry": { "type": "Point", "coordinates": [ -0.121328408, 51.51760685 ] } },
{ "type": "Feature", "properties": { "id": 163, "name": "Sloane Avenue", "area": "Knightsbridge", "nbikes": 14, "nempty": 16 }, "geometry": { "type": "Point", "coordinates": [ -0.167894973, 51.4931848 ] } },
{ "type": "Feature", "properties": { "id": 164, "name": "Cleveland Gardens", "area": "Bayswater", "nbikes": 12, "nempty": 4 }, "geometry": { "type": "Point", "coordinates": [ -0.183118788, 51.515607 ] } },
{ "type": "Feature", "properties": { "id": 165, "name": "Orsett Terrace", "area": "Bayswater", "nbikes": 2, "nempty": 13 }, "geometry": { "type": "Point", "coordinates": [ -0.183716959, 51.517932 ] } },
{ "type": "Feature", "properties": { "id": 166, "name": "Seville Street", "area": "Knightsbridge", "nbikes": 0, "nempty": 26 }, "geometry": { "type": "Point", "coordinates": [ -0.159237081, 51.50185512 ] } },
{ "type": "Feature", "properties": { "id": 167, "name": "Eccleston Place", "area": "Victoria", "nbikes": 3, "nempty": 16 }, "geometry": { "type": "Point", "coordinates": [ -0.147624377, 51.49395092 ] } },
{ "type": "Feature", "properties": { "id": 168, "name": "Argyll Road", "area": "Kensington", "nbikes": 3, "nempty": 14 }, "geometry": { "type": "Point", "coordinates": [ -0.195455928, 51.50040123 ] } },
{ "type": "Feature", "properties": { "id": 169, "name": "Porchester Place", "area": "Paddington", "nbikes": 12, "nempty": 5 }, "geometry": { "type": "Point", "coordinates": [ -0.165164288, 51.51474612 ] } },
{ "type": "Feature", "properties": { "id": 170, "name": "Hardwick Street", "area": "Clerkenwell", "nbikes": 8, "nempty": 22 }, "geometry": { "type": "Point", "coordinates": [ -0.108068155, 51.52784273 ] } },
{ "type": "Feature", "properties": { "id": 171, "name": "Collingham Gardens", "area": "Earl's Court", "nbikes": 11, "nempty": 3 }, "geometry": { "type": "Point", "coordinates": [ -0.186753859, 51.4916156 ] } },
{ "type": "Feature", "properties": { "id": 172, "name": "Sumner Place", "area": "South Kensington", "nbikes": 4, "nempty": 15 }, "geometry": { "type": "Point", "coordinates": [ -0.173715911, 51.49121192 ] } },
{ "type": "Feature", "properties": { "id": 173, "name": "Waterloo Road", "area": "South Bank", "nbikes": 11, "nempty": 4 }, "geometry": { "type": "Point", "coordinates": [ -0.113001, 51.50486 ] } },
{ "type": "Feature", "properties": { "id": 174, "name": "Strand", "area": "Strand", "nbikes": 12, "nempty": 22 }, "geometry": { "type": "Point", "coordinates": [ -0.115163, 51.512529 ] } },
{ "type": "Feature", "properties": { "id": 175, "name": "Appold Street", "area": "Liverpool Street", "nbikes": 0, "nempty": 24 }, "geometry": { "type": "Point", "coordinates": [ -0.0811189, 51.52174384 ] } },
{ "type": "Feature", "properties": { "id": 176, "name": "Gloucester Terrace", "area": "Bayswater", "nbikes": 23, "nempty": 0 }, "geometry": { "type": "Point", "coordinates": [ -0.188098863, 51.51791921 ] } },
{ "type": "Feature", "properties": { "id": 177, "name": "Ashley Place", "area": "Victoria", "nbikes": 17, "nempty": 8 }, "geometry": { "type": "Point", "coordinates": [ -0.140947636, 51.49616092 ] } },
{ "type": "Feature", "properties": { "id": 178, "name": "Warwick Square", "area": "Pimlico", "nbikes": 18, "nempty": 1 }, "geometry": { "type": "Point", "coordinates": [ -0.141923621, 51.48985626 ] } },
{ "type": "Feature", "properties": { "id": 180, "name": "North Audley Street", "area": "Mayfair", "nbikes": 0, "nempty": 16 }, "geometry": { "type": "Point", "coordinates": [ -0.153645496, 51.5129118 ] } },
{ "type": "Feature", "properties": { "id": 181, "name": "Belgrave Square", "area": "Belgravia", "nbikes": 2, "nempty": 19 }, "geometry": { "type": "Point", "coordinates": [ -0.152317537, 51.49941247 ] } },
{ "type": "Feature", "properties": { "id": 182, "name": "Bell Street", "area": "Marylebone", "nbikes": 8, "nempty": 10 }, "geometry": { "type": "Point", "coordinates": [ -0.165842551, 51.52202903 ] } },
{ "type": "Feature", "properties": { "id": 184, "name": "Portland Place", "area": "Marylebone", "nbikes": 1, "nempty": 33 }, "geometry": { "type": "Point", "coordinates": [ -0.14521173, 51.52071513 ] } },
{ "type": "Feature", "properties": { "id": 185, "name": "Alderney Street", "area": "Pimlico", "nbikes": 14, "nempty": 0 }, "geometry": { "type": "Point", "coordinates": [ -0.140741432, 51.48805753 ] } },
{ "type": "Feature", "properties": { "id": 186, "name": "South Wharf Road", "area": "Paddington", "nbikes": 11, "nempty": 5 }, "geometry": { "type": "Point", "coordinates": [ -0.175810943, 51.51733558 ] } },
{ "type": "Feature", "properties": { "id": 187, "name": "Queen's Gate (South)", "area": "South Kensington", "nbikes": 14, "nempty": 10 }, "geometry": { "type": "Point", "coordinates": [ -0.178433004, 51.49247977 ] } },
{ "type": "Feature", "properties": { "id": 188, "name": "Nutford Place", "area": "Marylebone", "nbikes": 1, "nempty": 17 }, "geometry": { "type": "Point", "coordinates": [ -0.164393768, 51.5165179 ] } },
{ "type": "Feature", "properties": { "id": 189, "name": "Claremont Square", "area": "Angel", "nbikes": 4, "nempty": 13 }, "geometry": { "type": "Point", "coordinates": [ -0.109914711, 51.53166681 ] } },
{ "type": "Feature", "properties": { "id": 190, "name": "Rampayne Street", "area": "Pimlico", "nbikes": 17, "nempty": 4 }, "geometry": { "type": "Point", "coordinates": [ -0.132845681, 51.48997562 ] } },
{ "type": "Feature", "properties": { "id": 191, "name": "Hyde Park Corner", "area": "Hyde Park", "nbikes": 0, "nempty": 23 }, "geometry": { "type": "Point", "coordinates": [ -0.153520935, 51.50311799 ] } },
{ "type": "Feature", "properties": { "id": 192, "name": "Wardour Street", "area": "Soho", "nbikes": 0, "nempty": 15 }, "geometry": { "type": "Point", "coordinates": [ -0.133201961, 51.51251523 ] } },
{ "type": "Feature", "properties": { "id": 193, "name": "Bankside Mix", "area": "Bankside", "nbikes": 17, "nempty": 43 }, "geometry": { "type": "Point", "coordinates": [ -0.100186337, 51.50581776 ] } },
{ "type": "Feature", "properties": { "id": 194, "name": "Hop Exchange", "area": "The Borough", "nbikes": 22, "nempty": 32 }, "geometry": { "type": "Point", "coordinates": [ -0.091773776, 51.50462759 ] } },
{ "type": "Feature", "properties": { "id": 195, "name": "Milroy Walk", "area": "South Bank", "nbikes": 8, "nempty": 21 }, "geometry": { "type": "Point", "coordinates": [ -0.106237501, 51.50724437 ] } },
{ "type": "Feature", "properties": { "id": 196, "name": "Union Street", "area": "The Borough", "nbikes": 13, "nempty": 3 }, "geometry": { "type": "Point", "coordinates": [ -0.098497684, 51.50368837 ] } },
{ "type": "Feature", "properties": { "id": 197, "name": "Stamford Street", "area": "South Bank", "nbikes": 11, "nempty": 15 }, "geometry": { "type": "Point", "coordinates": [ -0.111606696, 51.50556905 ] } },
{ "type": "Feature", "properties": { "id": 199, "name": "Great Tower Street", "area": "Monument", "nbikes": 5, "nempty": 16 }, "geometry": { "type": "Point", "coordinates": [ -0.082989638, 51.51048489 ] } },
{ "type": "Feature", "properties": { "id": 200, "name": "LMU Commercial Road", "area": "Whitechapel", "nbikes": 11, "nempty": 2 }, "geometry": { "type": "Point", "coordinates": [ -0.066078037, 51.51492456 ] } },
{ "type": "Feature", "properties": { "id": 201, "name": "Dorset Square", "area": "Marylebone", "nbikes": 15, "nempty": 0 }, "geometry": { "type": "Point", "coordinates": [ -0.161113413, 51.5225965 ] } },
{ "type": "Feature", "properties": { "id": 202, "name": "Leman Street", "area": "Aldgate", "nbikes": 6, "nempty": 30 }, "geometry": { "type": "Point", "coordinates": [ -0.06954201, 51.51236389 ] } },
{ "type": "Feature", "properties": { "id": 203, "name": "West Smithfield Rotunda", "area": "Farringdon", "nbikes": 6, "nempty": 9 }, "geometry": { "type": "Point", "coordinates": [ -0.100791005, 51.51821864 ] } },
{ "type": "Feature", "properties": { "id": 204, "name": "Margery Street", "area": "Clerkenwell", "nbikes": 8, "nempty": 10 }, "geometry": { "type": "Point", "coordinates": [ -0.112432615, 51.52659961 ] } },
{ "type": "Feature", "properties": { "id": 205, "name": "New Road  2", "area": "Whitechapel", "nbikes": 13, "nempty": 5 }, "geometry": { "type": "Point", "coordinates": [ -0.06275, 51.518144 ] } },
{ "type": "Feature", "properties": { "id": 206, "name": "New Road 1", "area": "Whitechapel", "nbikes": 16, "nempty": 1 }, "geometry": { "type": "Point", "coordinates": [ -0.062697, 51.518154 ] } },
{ "type": "Feature", "properties": { "id": 207, "name": "Grosvenor Crescent", "area": "Belgravia", "nbikes": 1, "nempty": 17 }, "geometry": { "type": "Point", "coordinates": [ -0.153194766, 51.50135267 ] } },
{ "type": "Feature", "properties": { "id": 208, "name": "Mallory Street", "area": "Marylebone", "nbikes": 8, "nempty": 12 }, "geometry": { "type": "Point", "coordinates": [ -0.166304359, 51.52505151 ] } },
{ "type": "Feature", "properties": { "id": 209, "name": "Denyer Street", "area": "Knightsbridge", "nbikes": 22, "nempty": 8 }, "geometry": { "type": "Point", "coordinates": [ -0.165101392, 51.49358391 ] } },
{ "type": "Feature", "properties": { "id": 210, "name": "Hinde Street", "area": "Marylebone", "nbikes": 0, "nempty": 21 }, "geometry": { "type": "Point", "coordinates": [ -0.151926305, 51.51681444 ] } },
{ "type": "Feature", "properties": { "id": 211, "name": "Cadogan Place", "area": "Knightsbridge", "nbikes": 22, "nempty": 11 }, "geometry": { "type": "Point", "coordinates": [ -0.158105512, 51.49464523 ] } },
{ "type": "Feature", "properties": { "id": 212, "name": "Campden Hill Road", "area": "Notting Hill", "nbikes": 9, "nempty": 8 }, "geometry": { "type": "Point", "coordinates": [ -0.199004026, 51.50658458 ] } },
{ "type": "Feature", "properties": { "id": 213, "name": "Wellington Arch", "area": "Hyde Park", "nbikes": 16, "nempty": 19 }, "geometry": { "type": "Point", "coordinates": [ -0.149569201, 51.50274025 ] } },
{ "type": "Feature", "properties": { "id": 214, "name": "Endsleigh Gardens", "area": "Euston", "nbikes": 21, "nempty": 11 }, "geometry": { "type": "Point", "coordinates": [ -0.130504336, 51.52683806 ] } },
{ "type": "Feature", "properties": { "id": 215, "name": "Moorfields", "area": "Moorgate", "nbikes": 0, "nempty": 53 }, "geometry": { "type": "Point", "coordinates": [ -0.088285377, 51.51906932 ] } },
{ "type": "Feature", "properties": { "id": 216, "name": "Old Brompton Road", "area": "South Kensington", "nbikes": 13, "nempty": 17 }, "geometry": { "type": "Point", "coordinates": [ -0.181190899, 51.49094565 ] } },
{ "type": "Feature", "properties": { "id": 217, "name": "Wormwood Street", "area": "Liverpool Street", "nbikes": 1, "nempty": 14 }, "geometry": { "type": "Point", "coordinates": [ -0.082422399, 51.51615461 ] } },
{ "type": "Feature", "properties": { "id": 218, "name": "St. Luke's Church", "area": "Chelsea", "nbikes": 12, "nempty": 8 }, "geometry": { "type": "Point", "coordinates": [ -0.170194408, 51.48971651 ] } },
{ "type": "Feature", "properties": { "id": 219, "name": "Bramham Gardens", "area": "Earl's Court", "nbikes": 15, "nempty": 12 }, "geometry": { "type": "Point", "coordinates": [ -0.19039362, 51.49016361 ] } },
{ "type": "Feature", "properties": { "id": 220, "name": "Chelsea Green", "area": "Chelsea", "nbikes": 17, "nempty": 9 }, "geometry": { "type": "Point", "coordinates": [ -0.166485083, 51.49066456 ] } },
{ "type": "Feature", "properties": { "id": 221, "name": "Horseferry Road", "area": "Westminster", "nbikes": 12, "nempty": 3 }, "geometry": { "type": "Point", "coordinates": [ -0.13045856, 51.49481649 ] } },
{ "type": "Feature", "properties": { "id": 222, "name": "Knightsbridge", "area": "Hyde Park", "nbikes": 0, "nempty": 43 }, "geometry": { "type": "Point", "coordinates": [ -0.155349725, 51.50275704 ] } },
{ "type": "Feature", "properties": { "id": 223, "name": "Rodney Road", "area": "Walworth", "nbikes": 18, "nempty": 5 }, "geometry": { "type": "Point", "coordinates": [ -0.090220911, 51.49148474 ] } },
{ "type": "Feature", "properties": { "id": 224, "name": "Whiteley's", "area": "Bayswater", "nbikes": 14, "nempty": 0 }, "geometry": { "type": "Point", "coordinates": [ -0.188129731, 51.51476963 ] } },
{ "type": "Feature", "properties": { "id": 225, "name": "Notting Hill Gate Station", "area": "Notting Hill", "nbikes": 5, "nempty": 25 }, "geometry": { "type": "Point", "coordinates": [ -0.196422, 51.50935342 ] } },
{ "type": "Feature", "properties": { "id": 226, "name": "Charles II Street", "area": "West End", "nbikes": 0, "nempty": 23 }, "geometry": { "type": "Point", "coordinates": [ -0.131961389, 51.50844614 ] } },
{ "type": "Feature", "properties": { "id": 227, "name": "Great Percy Street", "area": "Clerkenwell", "nbikes": 17, "nempty": 2 }, "geometry": { "type": "Point", "coordinates": [ -0.115480888, 51.52891573 ] } },
{ "type": "Feature", "properties": { "id": 228, "name": "St. James's Square", "area": "St. James's", "nbikes": 0, "nempty": 38 }, "geometry": { "type": "Point", "coordinates": [ -0.134621209, 51.50742485 ] } },
{ "type": "Feature", "properties": { "id": 229, "name": "Whitehall Place", "area": "Strand", "nbikes": 17, "nempty": 7 }, "geometry": { "type": "Point", "coordinates": [ -0.123179697, 51.50654321 ] } },
{ "type": "Feature", "properties": { "id": 230, "name": "Poured Lines", "area": "Bankside", "nbikes": 22, "nempty": 8 }, "geometry": { "type": "Point", "coordinates": [ -0.103137426, 51.50669284 ] } },
{ "type": "Feature", "properties": { "id": 231, "name": "Queen's Gate (Central)", "area": "South Kensington", "nbikes": 12, "nempty": 18 }, "geometry": { "type": "Point", "coordinates": [ -0.17873226, 51.49396755 ] } },
{ "type": "Feature", "properties": { "id": 232, "name": "Carey Street", "area": "Holborn", "nbikes": 0, "nempty": 16 }, "geometry": { "type": "Point", "coordinates": [ -0.112753217, 51.51501025 ] } },
{ "type": "Feature", "properties": { "id": 233, "name": "Pall Mall East", "area": "West End", "nbikes": 0, "nempty": 22 }, "geometry": { "type": "Point", "coordinates": [ -0.130699733, 51.50777049 ] } },
{ "type": "Feature", "properties": { "id": 234, "name": "Liverpool Road (N1 Centre)", "area": "Angel", "nbikes": 21, "nempty": 3 }, "geometry": { "type": "Point", "coordinates": [ -0.106992706, 51.53450449 ] } },
{ "type": "Feature", "properties": { "id": 235, "name": "Kennington Road", "area": "Vauxhall", "nbikes": 35, "nempty": 1 }, "geometry": { "type": "Point", "coordinates": [ -0.110889274, 51.49571828 ] } },
{ "type": "Feature", "properties": { "id": 236, "name": "Fashion Street", "area": "Whitechapel", "nbikes": 10, "nempty": 18 }, "geometry": { "type": "Point", "coordinates": [ -0.073438925, 51.51838043 ] } },
{ "type": "Feature", "properties": { "id": 237, "name": "Vaughan Way", "area": "Wapping", "nbikes": 22, "nempty": 12 }, "geometry": { "type": "Point", "coordinates": [ -0.067176443, 51.5084448 ] } },
{ "type": "Feature", "properties": { "id": 238, "name": "Frampton Street", "area": "Paddington", "nbikes": 27, "nempty": 5 }, "geometry": { "type": "Point", "coordinates": [ -0.175116099, 51.5233534 ] } },
{ "type": "Feature", "properties": { "id": 239, "name": "Warren Street Station", "area": "Euston", "nbikes": 1, "nempty": 25 }, "geometry": { "type": "Point", "coordinates": [ -0.138019439, 51.52443845 ] } },
{ "type": "Feature", "properties": { "id": 240, "name": "Colombo Street", "area": "Southwark", "nbikes": 9, "nempty": 5 }, "geometry": { "type": "Point", "coordinates": [ -0.10569204, 51.50545935 ] } },
{ "type": "Feature", "properties": { "id": 242, "name": "Beaumont Street", "area": "Marylebone", "nbikes": 5, "nempty": 17 }, "geometry": { "type": "Point", "coordinates": [ -0.151359288, 51.52200801 ] } },
{ "type": "Feature", "properties": { "id": 243, "name": "Gloucester Street", "area": "Pimlico", "nbikes": 17, "nempty": 6 }, "geometry": { "type": "Point", "coordinates": [ -0.139625122, 51.49096258 ] } },
{ "type": "Feature", "properties": { "id": 244, "name": "Earnshaw Street", "area": "Covent Garden", "nbikes": 0, "nempty": 17 }, "geometry": { "type": "Point", "coordinates": [ -0.128585022, 51.51611887 ] } },
{ "type": "Feature", "properties": { "id": 245, "name": "Grosvenor Road", "area": "Pimlico", "nbikes": 16, "nempty": 11 }, "geometry": { "type": "Point", "coordinates": [ -0.142207481, 51.4853572 ] } },
{ "type": "Feature", "properties": { "id": 246, "name": "Berry Street", "area": "Clerkenwell", "nbikes": 1, "nempty": 38 }, "geometry": { "type": "Point", "coordinates": [ -0.099994052, 51.52285301 ] } },
{ "type": "Feature", "properties": { "id": 247, "name": "St. John's Wood Church", "area": "Regent's Park", "nbikes": 26, "nempty": 21 }, "geometry": { "type": "Point", "coordinates": [ -0.168314, 51.530052 ] } },
{ "type": "Feature", "properties": { "id": 248, "name": "Triangle Car Park", "area": "Hyde Park", "nbikes": 19, "nempty": 8 }, "geometry": { "type": "Point", "coordinates": [ -0.170279555, 51.50645179 ] } },
{ "type": "Feature", "properties": { "id": 249, "name": "Harper Road", "area": "Borough", "nbikes": 28, "nempty": 14 }, "geometry": { "type": "Point", "coordinates": [ -0.096191134, 51.49859784 ] } },
{ "type": "Feature", "properties": { "id": 250, "name": "Royal Avenue 1", "area": "Chelsea", "nbikes": 0, "nempty": 8 }, "geometry": { "type": "Point", "coordinates": [ -0.162727, 51.489932 ] } },
{ "type": "Feature", "properties": { "id": 251, "name": "Brushfield Street", "area": "Liverpool Street", "nbikes": 0, "nempty": 32 }, "geometry": { "type": "Point", "coordinates": [ -0.079249, 51.518908 ] } },
{ "type": "Feature", "properties": { "id": 252, "name": "Jubilee Gardens", "area": "South Bank", "nbikes": 26, "nempty": 3 }, "geometry": { "type": "Point", "coordinates": [ -0.116542278, 51.5046364 ] } },
{ "type": "Feature", "properties": { "id": 253, "name": "Shoreditch Park", "area": "Hoxton", "nbikes": 30, "nempty": 0 }, "geometry": { "type": "Point", "coordinates": [ -0.086379717, 51.53404294 ] } },
{ "type": "Feature", "properties": { "id": 254, "name": "Chadwell Street", "area": "Angel", "nbikes": 11, "nempty": 7 }, "geometry": { "type": "Point", "coordinates": [ -0.106408455, 51.53051587 ] } },
{ "type": "Feature", "properties": { "id": 255, "name": "Clifton Road", "area": "Maida Vale", "nbikes": 21, "nempty": 0 }, "geometry": { "type": "Point", "coordinates": [ -0.179592915, 51.52557531 ] } },
{ "type": "Feature", "properties": { "id": 256, "name": "Houghton Street", "area": "Strand", "nbikes": 0, "nempty": 15 }, "geometry": { "type": "Point", "coordinates": [ -0.116764211, 51.51362054 ] } },
{ "type": "Feature", "properties": { "id": 257, "name": "Westminster University", "area": "Marylebone", "nbikes": 11, "nempty": 4 }, "geometry": { "type": "Point", "coordinates": [ -0.154907218, 51.52248185 ] } },
{ "type": "Feature", "properties": { "id": 258, "name": "Kensington Gore", "area": "Knightsbridge", "nbikes": 8, "nempty": 15 }, "geometry": { "type": "Point", "coordinates": [ -0.178656971, 51.50143293 ] } },
{ "type": "Feature", "properties": { "id": 259, "name": "Embankment (Horse Guards)", "area": "Westminster", "nbikes": 0, "nempty": 29 }, "geometry": { "type": "Point", "coordinates": [ -0.123247648, 51.50494561 ] } },
{ "type": "Feature", "properties": { "id": 260, "name": "Broadwick Street", "area": "Soho", "nbikes": 0, "nempty": 18 }, "geometry": { "type": "Point", "coordinates": [ -0.135580879, 51.5136846 ] } },
{ "type": "Feature", "properties": { "id": 261, "name": "Princes Square", "area": "Bayswater", "nbikes": 16, "nempty": 0 }, "geometry": { "type": "Point", "coordinates": [ -0.191351186, 51.5134891 ] } },
{ "type": "Feature", "properties": { "id": 262, "name": "LSBU (Borough Road)", "area": "Elephant & Castle", "nbikes": 27, "nempty": 8 }, "geometry": { "type": "Point", "coordinates": [ -0.103132904, 51.49874469 ] } },
{ "type": "Feature", "properties": { "id": 263, "name": "St. Mary Axe", "area": "Aldgate", "nbikes": 0, "nempty": 19 }, "geometry": { "type": "Point", "coordinates": [ -0.080660083, 51.51422502 ] } },
{ "type": "Feature", "properties": { "id": 264, "name": "Tysoe Street", "area": "Clerkenwell", "nbikes": 2, "nempty": 16 }, "geometry": { "type": "Point", "coordinates": [ -0.109256828, 51.52644342 ] } },
{ "type": "Feature", "properties": { "id": 265, "name": "Southwick Street", "area": "Paddington", "nbikes": 14, "nempty": 3 }, "geometry": { "type": "Point", "coordinates": [ -0.169249375, 51.51595344 ] } },
{ "type": "Feature", "properties": { "id": 266, "name": "Queen's Gate (North)", "area": "Kensington", "nbikes": 0, "nempty": 19 }, "geometry": { "type": "Point", "coordinates": [ -0.180246101, 51.50102668 ] } },
{ "type": "Feature", "properties": { "id": 267, "name": "Regency Street", "area": "Westminster", "nbikes": 7, "nempty": 12 }, "geometry": { "type": "Point", "coordinates": [ -0.132224622, 51.49206037 ] } },
{ "type": "Feature", "properties": { "id": 268, "name": "Belgrave Road", "area": "Victoria", "nbikes": 19, "nempty": 10 }, "geometry": { "type": "Point", "coordinates": [ -0.144132875, 51.49320445 ] } },
{ "type": "Feature", "properties": { "id": 269, "name": "Empire Square", "area": "The Borough", "nbikes": 32, "nempty": 13 }, "geometry": { "type": "Point", "coordinates": [ -0.089740764, 51.50082346 ] } },
{ "type": "Feature", "properties": { "id": 270, "name": "Kennington Lane Rail Bridge", "area": "Vauxhall", "nbikes": 21, "nempty": 10 }, "geometry": { "type": "Point", "coordinates": [ -0.122492418, 51.4863434 ] } },
{ "type": "Feature", "properties": { "id": 271, "name": "London Zoo", "area": "Regents Park", "nbikes": 11, "nempty": 21 }, "geometry": { "type": "Point", "coordinates": [ -0.156285395, 51.53583617 ] } },
{ "type": "Feature", "properties": { "id": 272, "name": "Baylis Road", "area": "Waterloo", "nbikes": 4, "nempty": 16 }, "geometry": { "type": "Point", "coordinates": [ -0.110699309, 51.50144456 ] } },
{ "type": "Feature", "properties": { "id": 273, "name": "Belvedere Road", "area": "South Bank", "nbikes": 19, "nempty": 17 }, "geometry": { "type": "Point", "coordinates": [ -0.114686385, 51.50613324 ] } },
{ "type": "Feature", "properties": { "id": 274, "name": "Warwick Road", "area": "Olympia", "nbikes": 18, "nempty": 18 }, "geometry": { "type": "Point", "coordinates": [ -0.20528437, 51.49671237 ] } },
{ "type": "Feature", "properties": { "id": 275, "name": "Barbican Centre", "area": "Barbican", "nbikes": 0, "nempty": 19 }, "geometry": { "type": "Point", "coordinates": [ -0.092176447, 51.52004497 ] } },
{ "type": "Feature", "properties": { "id": 276, "name": "Lower Thames Street", "area": "Monument", "nbikes": 0, "nempty": 23 }, "geometry": { "type": "Point", "coordinates": [ -0.084985356, 51.50930161 ] } },
{ "type": "Feature", "properties": { "id": 277, "name": "Kensington Church Street", "area": "Kensington", "nbikes": 7, "nempty": 8 }, "geometry": { "type": "Point", "coordinates": [ -0.191496313, 51.50315739 ] } },
{ "type": "Feature", "properties": { "id": 278, "name": "Tooley Street", "area": "Bermondsey", "nbikes": 4, "nempty": 12 }, "geometry": { "type": "Point", "coordinates": [ -0.07962099, 51.5034938 ] } },
{ "type": "Feature", "properties": { "id": 279, "name": "North Wharf Road", "area": "Paddington", "nbikes": 5, "nempty": 20 }, "geometry": { "type": "Point", "coordinates": [ -0.176645823, 51.51862243 ] } },
{ "type": "Feature", "properties": { "id": 280, "name": "Royal Avenue 2", "area": "Chelsea", "nbikes": 1, "nempty": 8 }, "geometry": { "type": "Point", "coordinates": [ -0.162418, 51.490083 ] } },
{ "type": "Feature", "properties": { "id": 281, "name": "Smith Square", "area": "Westminster", "nbikes": 4, "nempty": 12 }, "geometry": { "type": "Point", "coordinates": [ -0.127575233, 51.49580589 ] } },
{ "type": "Feature", "properties": { "id": 282, "name": "Royal London Hospital", "area": "Whitechapel", "nbikes": 39, "nempty": 2 }, "geometry": { "type": "Point", "coordinates": [ -0.059642081, 51.51906446 ] } },
{ "type": "Feature", "properties": { "id": 284, "name": "Lambeth North Station", "area": "Waterloo", "nbikes": 11, "nempty": 9 }, "geometry": { "type": "Point", "coordinates": [ -0.112031483, 51.49914063 ] } },
{ "type": "Feature", "properties": { "id": 286, "name": "St. John's Wood Road", "area": "St. John's Wood", "nbikes": 16, "nempty": 19 }, "geometry": { "type": "Point", "coordinates": [ -0.174653609, 51.5272947 ] } },
{ "type": "Feature", "properties": { "id": 287, "name": "Bedford Way", "area": "Bloomsbury", "nbikes": 0, "nempty": 23 }, "geometry": { "type": "Point", "coordinates": [ -0.128377673, 51.52367314 ] } },
{ "type": "Feature", "properties": { "id": 288, "name": "Elizabeth Bridge", "area": "Victoria", "nbikes": 18, "nempty": 16 }, "geometry": { "type": "Point", "coordinates": [ -0.147478734, 51.49236962 ] } },
{ "type": "Feature", "properties": { "id": 289, "name": "South Audley Street", "area": "Mayfair", "nbikes": 0, "nempty": 15 }, "geometry": { "type": "Point", "coordinates": [ -0.151296092, 51.50923022 ] } },
{ "type": "Feature", "properties": { "id": 290, "name": "Winsland Street", "area": "Paddington", "nbikes": 7, "nempty": 5 }, "geometry": { "type": "Point", "coordinates": [ -0.175488803, 51.51678023 ] } },
{ "type": "Feature", "properties": { "id": 291, "name": "Claverton Street", "area": "Pimlico", "nbikes": 27, "nempty": 4 }, "geometry": { "type": "Point", "coordinates": [ -0.138089062, 51.48483991 ] } },
{ "type": "Feature", "properties": { "id": 292, "name": "Montpelier Street", "area": "Knightsbridge", "nbikes": 0, "nempty": 15 }, "geometry": { "type": "Point", "coordinates": [ -0.165471605, 51.49888404 ] } },
{ "type": "Feature", "properties": { "id": 293, "name": "Kensington Olympia Station", "area": "Olympia", "nbikes": 8, "nempty": 17 }, "geometry": { "type": "Point", "coordinates": [ -0.209494128, 51.49815779 ] } },
{ "type": "Feature", "properties": { "id": 294, "name": "St. George's Square", "area": "Pimlico", "nbikes": 14, "nempty": 1 }, "geometry": { "type": "Point", "coordinates": [ -0.135635511, 51.488226 ] } },
{ "type": "Feature", "properties": { "id": 295, "name": "Swan Street", "area": "The Borough", "nbikes": 21, "nempty": 6 }, "geometry": { "type": "Point", "coordinates": [ -0.092762704, 51.50029631 ] } },
{ "type": "Feature", "properties": { "id": 296, "name": "Knaresborough Place", "area": "Earl's Court", "nbikes": 13, "nempty": 5 }, "geometry": { "type": "Point", "coordinates": [ -0.190603326, 51.49363156 ] } },
{ "type": "Feature", "properties": { "id": 297, "name": "Geraldine Street", "area": "Elephant & Castle", "nbikes": 10, "nempty": 6 }, "geometry": { "type": "Point", "coordinates": [ -0.106000855, 51.49612799 ] } },
{ "type": "Feature", "properties": { "id": 298, "name": "Curlew Street", "area": "Shad Thames", "nbikes": 16, "nempty": 4 }, "geometry": { "type": "Point", "coordinates": [ -0.074189225, 51.50227992 ] } },
{ "type": "Feature", "properties": { "id": 299, "name": "Vincent Square", "area": "Westminster", "nbikes": 6, "nempty": 11 }, "geometry": { "type": "Point", "coordinates": [ -0.136928582, 51.49398524 ] } },
{ "type": "Feature", "properties": { "id": 300, "name": "Serpentine Car Park", "area": "Hyde Park", "nbikes": 13, "nempty": 2 }, "geometry": { "type": "Point", "coordinates": [ -0.172729559, 51.50501351 ] } },
{ "type": "Feature", "properties": { "id": 301, "name": "Marylebone Lane", "area": "Marylebone", "nbikes": 0, "nempty": 24 }, "geometry": { "type": "Point", "coordinates": [ -0.148105415, 51.51475963 ] } },
{ "type": "Feature", "properties": { "id": 302, "name": "Putney Pier", "area": "Wandsworth", "nbikes": 18, "nempty": 10 }, "geometry": { "type": "Point", "coordinates": [ -0.216573, 51.466907 ] } },
{ "type": "Feature", "properties": { "id": 303, "name": "Albert Gate", "area": "Hyde Park", "nbikes": 0, "nempty": 26 }, "geometry": { "type": "Point", "coordinates": [ -0.158456089, 51.50295379 ] } },
{ "type": "Feature", "properties": { "id": 304, "name": "Cumberland Gate", "area": "Hyde Park", "nbikes": 7, "nempty": 11 }, "geometry": { "type": "Point", "coordinates": [ -0.16209757, 51.51211869 ] } },
{ "type": "Feature", "properties": { "id": 305, "name": "Kennington Lane Tesco", "area": "Vauxhall", "nbikes": 10, "nempty": 5 }, "geometry": { "type": "Point", "coordinates": [ -0.115853961, 51.48677988 ] } },
{ "type": "Feature", "properties": { "id": 306, "name": "Rathbone Street", "area": "Fitzrovia", "nbikes": 1, "nempty": 15 }, "geometry": { "type": "Point", "coordinates": [ -0.135025698, 51.51816295 ] } },
{ "type": "Feature", "properties": { "id": 307, "name": "Black Lion Gate", "area": "Kensington Gardens", "nbikes": 20, "nempty": 1 }, "geometry": { "type": "Point", "coordinates": [ -0.187842717, 51.50990837 ] } },
{ "type": "Feature", "properties": { "id": 308, "name": "Long Lane", "area": "Bermondsey", "nbikes": 20, "nempty": 0 }, "geometry": { "type": "Point", "coordinates": [ -0.085666316, 51.49907558 ] } },
{ "type": "Feature", "properties": { "id": 309, "name": "Embankment (Savoy)", "area": "Strand", "nbikes": 1, "nempty": 40 }, "geometry": { "type": "Point", "coordinates": [ -0.119047563, 51.50963123 ] } },
{ "type": "Feature", "properties": { "id": 310, "name": "Black Prince Road", "area": "Vauxhall", "nbikes": 9, "nempty": 8 }, "geometry": { "type": "Point", "coordinates": [ -0.116911864, 51.4908679 ] } },
{ "type": "Feature", "properties": { "id": 311, "name": "Foley Street", "area": "Fitzrovia", "nbikes": 1, "nempty": 23 }, "geometry": { "type": "Point", "coordinates": [ -0.140485596, 51.51918144 ] } },
{ "type": "Feature", "properties": { "id": 312, "name": "Grove End Road", "area": "St. John's Wood", "nbikes": 17, "nempty": 2 }, "geometry": { "type": "Point", "coordinates": [ -0.176770502, 51.53088935 ] } },
{ "type": "Feature", "properties": { "id": 313, "name": "Wells Street", "area": "Fitzrovia", "nbikes": 1, "nempty": 37 }, "geometry": { "type": "Point", "coordinates": [ -0.138072691, 51.51734403 ] } },
{ "type": "Feature", "properties": { "id": 314, "name": "Tyers Gate", "area": "Bermondsey", "nbikes": 25, "nempty": 11 }, "geometry": { "type": "Point", "coordinates": [ -0.083159352, 51.50088934 ] } },
{ "type": "Feature", "properties": { "id": 315, "name": "The Tennis Courts", "area": "Regent's Park", "nbikes": 5, "nempty": 11 }, "geometry": { "type": "Point", "coordinates": [ -0.153463612, 51.52536703 ] } },
{ "type": "Feature", "properties": { "id": 316, "name": "Cardinal Place", "area": "Victoria", "nbikes": 22, "nempty": 1 }, "geometry": { "type": "Point", "coordinates": [ -0.141943703, 51.49768448 ] } },
{ "type": "Feature", "properties": { "id": 317, "name": "Dickens Square", "area": "Borough", "nbikes": 24, "nempty": 6 }, "geometry": { "type": "Point", "coordinates": [ -0.093913472, 51.49679128 ] } },
{ "type": "Feature", "properties": { "id": 318, "name": "Sackville Street", "area": "Mayfair", "nbikes": 0, "nempty": 17 }, "geometry": { "type": "Point", "coordinates": [ -0.138846453, 51.51004801 ] } },
{ "type": "Feature", "properties": { "id": 319, "name": "Baldwin Street", "area": "St. Luke's", "nbikes": 2, "nempty": 19 }, "geometry": { "type": "Point", "coordinates": [ -0.088542771, 51.52702563 ] } },
{ "type": "Feature", "properties": { "id": 320, "name": "Queen Mother Sports Centre", "area": "Victoria", "nbikes": 21, "nempty": 5 }, "geometry": { "type": "Point", "coordinates": [ -0.139956043, 51.49357351 ] } },
{ "type": "Feature", "properties": { "id": 321, "name": "Bermondsey Street", "area": "Bermondsey", "nbikes": 22, "nempty": 1 }, "geometry": { "type": "Point", "coordinates": [ -0.081608045, 51.49785559 ] } },
{ "type": "Feature", "properties": { "id": 322, "name": "Palissy Street", "area": "Shoreditch", "nbikes": 11, "nempty": 12 }, "geometry": { "type": "Point", "coordinates": [ -0.073955, 51.526293 ] } },
{ "type": "Feature", "properties": { "id": 323, "name": "Clifton Street", "area": "Shoreditch", "nbikes": 0, "nempty": 23 }, "geometry": { "type": "Point", "coordinates": [ -0.083067, 51.523196 ] } },
{ "type": "Feature", "properties": { "id": 324, "name": "Ontario Street", "area": "Elephant & Castle", "nbikes": 3, "nempty": 12 }, "geometry": { "type": "Point", "coordinates": [ -0.101384068, 51.49652013 ] } },
{ "type": "Feature", "properties": { "id": 325, "name": "St. Martin's Street", "area": "West End", "nbikes": 0, "nempty": 18 }, "geometry": { "type": "Point", "coordinates": [ -0.129697889, 51.50908747 ] } },
{ "type": "Feature", "properties": { "id": 326, "name": "Graham Street", "area": "Angel", "nbikes": 21, "nempty": 0 }, "geometry": { "type": "Point", "coordinates": [ -0.099981142, 51.53266186 ] } },
{ "type": "Feature", "properties": { "id": 327, "name": "New North Road 1", "area": "Hoxton", "nbikes": 10, "nempty": 12 }, "geometry": { "type": "Point", "coordinates": [ -0.086016, 51.53114 ] } },
{ "type": "Feature", "properties": { "id": 328, "name": "New North Road 2", "area": "Hoxton", "nbikes": 13, "nempty": 9 }, "geometry": { "type": "Point", "coordinates": [ -0.085603, 51.53095 ] } },
{ "type": "Feature", "properties": { "id": 329, "name": "Prince Albert Road", "area": "Regent's Park", "nbikes": 8, "nempty": 16 }, "geometry": { "type": "Point", "coordinates": [ -0.160854428, 51.53589283 ] } },
{ "type": "Feature", "properties": { "id": 330, "name": "Eastbourne Mews", "area": "Paddington", "nbikes": 24, "nempty": 10 }, "geometry": { "type": "Point", "coordinates": [ -0.179135079, 51.51641749 ] } },
{ "type": "Feature", "properties": { "id": 331, "name": "Bunhill Row", "area": "Moorgate", "nbikes": 0, "nempty": 30 }, "geometry": { "type": "Point", "coordinates": [ -0.089887855, 51.52085887 ] } },
{ "type": "Feature", "properties": { "id": 332, "name": "Nevern Place", "area": "Earl's Court", "nbikes": 9, "nempty": 11 }, "geometry": { "type": "Point", "coordinates": [ -0.194757949, 51.49334336 ] } },
{ "type": "Feature", "properties": { "id": 333, "name": "Palace Gardens Terrace", "area": "Notting Hill", "nbikes": 10, "nempty": 26 }, "geometry": { "type": "Point", "coordinates": [ -0.193764092, 51.50860544 ] } },
{ "type": "Feature", "properties": { "id": 334, "name": "Concert Hall Approach 1", "area": "South Bank", "nbikes": 2, "nempty": 8 }, "geometry": { "type": "Point", "coordinates": [ -0.115851, 51.505044 ] } },
{ "type": "Feature", "properties": { "id": 335, "name": "Tavistock Street", "area": "Covent Garden", "nbikes": 0, "nempty": 31 }, "geometry": { "type": "Point", "coordinates": [ -0.120718759, 51.51196803 ] } },
{ "type": "Feature", "properties": { "id": 336, "name": "Concert Hall Approach 2", "area": "South Bank", "nbikes": 14, "nempty": 4 }, "geometry": { "type": "Point", "coordinates": [ -0.115533, 51.504942 ] } },
{ "type": "Feature", "properties": { "id": 337, "name": "Pembridge Villas", "area": "Notting Hill", "nbikes": 5, "nempty": 11 }, "geometry": { "type": "Point", "coordinates": [ -0.197524944, 51.51108452 ] } },
{ "type": "Feature", "properties": { "id": 338, "name": "Wellington Street", "area": "Strand", "nbikes": 0, "nempty": 15 }, "geometry": { "type": "Point", "coordinates": [ -0.119643424, 51.51175646 ] } },
{ "type": "Feature", "properties": { "id": 339, "name": "Risinghill Street", "area": "Angel", "nbikes": 4, "nempty": 20 }, "geometry": { "type": "Point", "coordinates": [ -0.111781191, 51.5333196 ] } },
{ "type": "Feature", "properties": { "id": 340, "name": "Bank of England Museum", "area": "Bank", "nbikes": 0, "nempty": 14 }, "geometry": { "type": "Point", "coordinates": [ -0.087587447, 51.51444134 ] } },
{ "type": "Feature", "properties": { "id": 341, "name": "Craven Street", "area": "Strand", "nbikes": 10, "nempty": 11 }, "geometry": { "type": "Point", "coordinates": [ -0.12602103, 51.50810309 ] } },
{ "type": "Feature", "properties": { "id": 343, "name": "London Zoo Car Park", "area": "Regent's Park", "nbikes": 28, "nempty": 7 }, "geometry": { "type": "Point", "coordinates": [ -0.150181444, 51.53692216 ] } },
{ "type": "Feature", "properties": { "id": 344, "name": "Goswell Road (City Uni)", "area": "Finsbury", "nbikes": 5, "nempty": 12 }, "geometry": { "type": "Point", "coordinates": [ -0.10102611, 51.528246 ] } },
{ "type": "Feature", "properties": { "id": 345, "name": "Flood Street", "area": "Chelsea", "nbikes": 2, "nempty": 16 }, "geometry": { "type": "Point", "coordinates": [ -0.166878535, 51.48802358 ] } },
{ "type": "Feature", "properties": { "id": 347, "name": "Lower Marsh", "area": "Waterloo", "nbikes": 7, "nempty": 10 }, "geometry": { "type": "Point", "coordinates": [ -0.113936001, 51.50013942 ] } },
{ "type": "Feature", "properties": { "id": 348, "name": "Grosvenor Square", "area": "Mayfair", "nbikes": 0, "nempty": 17 }, "geometry": { "type": "Point", "coordinates": [ -0.150481272, 51.51217033 ] } },
{ "type": "Feature", "properties": { "id": 349, "name": "St. George Street", "area": "Mayfair", "nbikes": 0, "nempty": 18 }, "geometry": { "type": "Point", "coordinates": [ -0.142783033, 51.51196 ] } },
{ "type": "Feature", "properties": { "id": 350, "name": "Queen's Gate", "area": "Kensington Gardens", "nbikes": 8, "nempty": 11 }, "geometry": { "type": "Point", "coordinates": [ -0.1798541843891, 51.5017154373867 ] } },
{ "type": "Feature", "properties": { "id": 351, "name": "Macclesfield Rd", "area": "St Lukes", "nbikes": 25, "nempty": 2 }, "geometry": { "type": "Point", "coordinates": [ -0.097122, 51.529423 ] } },
{ "type": "Feature", "properties": { "id": 352, "name": "Vauxhall Street", "area": "Vauxhall", "nbikes": 18, "nempty": 0 }, "geometry": { "type": "Point", "coordinates": [ -0.116625, 51.486965 ] } },
{ "type": "Feature", "properties": { "id": 353, "name": "Greycoat Street", "area": "Westminster", "nbikes": 12, "nempty": 4 }, "geometry": { "type": "Point", "coordinates": [ -0.134234258, 51.49459148 ] } },
{ "type": "Feature", "properties": { "id": 354, "name": "Northumberland Avenue", "area": "Strand", "nbikes": 32, "nempty": 5 }, "geometry": { "type": "Point", "coordinates": [ -0.123702, 51.506767 ] } },
{ "type": "Feature", "properties": { "id": 355, "name": "Oval Way", "area": "Lambeth", "nbikes": 15, "nempty": 5 }, "geometry": { "type": "Point", "coordinates": [ -0.117286, 51.486575 ] } },
{ "type": "Feature", "properties": { "id": 356, "name": "South Kensington Station", "area": "South Kensington", "nbikes": 7, "nempty": 8 }, "geometry": { "type": "Point", "coordinates": [ -0.173881, 51.494412 ] } },
{ "type": "Feature", "properties": { "id": 357, "name": "Howland Street", "area": "Fitzrovia", "nbikes": 0, "nempty": 29 }, "geometry": { "type": "Point", "coordinates": [ -0.139016, 51.520994 ] } },
{ "type": "Feature", "properties": { "id": 358, "name": "High Holborn", "area": "Covent Garden", "nbikes": 0, "nempty": 17 }, "geometry": { "type": "Point", "coordinates": [ -0.124332175, 51.51643491 ] } },
{ "type": "Feature", "properties": { "id": 359, "name": "Butler Place", "area": "Westminster", "nbikes": 8, "nempty": 10 }, "geometry": { "type": "Point", "coordinates": [ -0.135440826, 51.49782999 ] } },
{ "type": "Feature", "properties": { "id": 360, "name": "Howick Place", "area": "Westminster", "nbikes": 2, "nempty": 25 }, "geometry": { "type": "Point", "coordinates": [ -0.138733562, 51.49675303 ] } },
{ "type": "Feature", "properties": { "id": 361, "name": "Waterloo Station 2", "area": "Waterloo", "nbikes": 46, "nempty": 4 }, "geometry": { "type": "Point", "coordinates": [ -0.11342628, 51.50391972 ] } },
{ "type": "Feature", "properties": { "id": 362, "name": "Royal College Street", "area": "Camden Town", "nbikes": 35, "nempty": 22 }, "geometry": { "type": "Point", "coordinates": [ -0.133952, 51.536264 ] } },
{ "type": "Feature", "properties": { "id": 363, "name": "Lord's", "area": "St. John's Wood", "nbikes": 17, "nempty": 7 }, "geometry": { "type": "Point", "coordinates": [ -0.171185284853, 51.529121200890103 ] } },
{ "type": "Feature", "properties": { "id": 364, "name": "Alfred Place", "area": "Bloomsbury", "nbikes": 0, "nempty": 41 }, "geometry": { "type": "Point", "coordinates": [ -0.132339, 51.519656 ] } },
{ "type": "Feature", "properties": { "id": 365, "name": "City Road", "area": "Angel", "nbikes": 39, "nempty": 8 }, "geometry": { "type": "Point", "coordinates": [ -0.100168, 51.530344 ] } },
{ "type": "Feature", "properties": { "id": 366, "name": "Millennium Hotel", "area": "Mayfair", "nbikes": 0, "nempty": 27 }, "geometry": { "type": "Point", "coordinates": [ -0.1511263847351, 51.5109192966489 ] } },
{ "type": "Feature", "properties": { "id": 367, "name": "Harrowby Street", "area": "Marylebone", "nbikes": 2, "nempty": 14 }, "geometry": { "type": "Point", "coordinates": [ -0.1642075, 51.5173721 ] } },
{ "type": "Feature", "properties": { "id": 368, "name": "Harriet Street", "area": "Knightsbridge", "nbikes": 3, "nempty": 20 }, "geometry": { "type": "Point", "coordinates": [ -0.15934065, 51.50024195 ] } },
{ "type": "Feature", "properties": { "id": 370, "name": "Paddington Green", "area": "Paddington", "nbikes": 2, "nempty": 18 }, "geometry": { "type": "Point", "coordinates": [ -0.174593, 51.520205 ] } },
{ "type": "Feature", "properties": { "id": 371, "name": "King Edward Walk", "area": "Waterloo", "nbikes": 16, "nempty": 6 }, "geometry": { "type": "Point", "coordinates": [ -0.10988, 51.49775 ] } },
{ "type": "Feature", "properties": { "id": 372, "name": "Sardinia Street", "area": "Holborn", "nbikes": 10, "nempty": 14 }, "geometry": { "type": "Point", "coordinates": [ -0.117863, 51.515208 ] } },
{ "type": "Feature", "properties": { "id": 373, "name": "Prince Consort Road", "area": "Knightsbridge", "nbikes": 0, "nempty": 18 }, "geometry": { "type": "Point", "coordinates": [ -0.176415994, 51.49980661 ] } },
{ "type": "Feature", "properties": { "id": 374, "name": "Waterloo Station 1", "area": "Waterloo", "nbikes": 12, "nempty": 24 }, "geometry": { "type": "Point", "coordinates": [ -0.11386435, 51.50402793 ] } },
{ "type": "Feature", "properties": { "id": 375, "name": "Kensington Town Hall", "area": "Kensington", "nbikes": 1, "nempty": 17 }, "geometry": { "type": "Point", "coordinates": [ -0.194392952, 51.50194596 ] } },
{ "type": "Feature", "properties": { "id": 376, "name": "Millbank House", "area": "Pimlico", "nbikes": 18, "nempty": 6 }, "geometry": { "type": "Point", "coordinates": [ -0.125674815, 51.49188409 ] } },
{ "type": "Feature", "properties": { "id": 377, "name": "Waterloo Bridge", "area": "South Bank", "nbikes": 4, "nempty": 11 }, "geometry": { "type": "Point", "coordinates": [ -0.113656543, 51.50535447 ] } },
{ "type": "Feature", "properties": { "id": 378, "name": "Natural History Museum", "area": "South Kensington", "nbikes": 5, "nempty": 35 }, "geometry": { "type": "Point", "coordinates": [ -0.179077626, 51.49559291 ] } },
{ "type": "Feature", "properties": { "id": 379, "name": "Turquoise Island", "area": "Notting Hill", "nbikes": 5, "nempty": 16 }, "geometry": { "type": "Point", "coordinates": [ -0.200838199, 51.51431171 ] } },
{ "type": "Feature", "properties": { "id": 380, "name": "Stanhope Gate", "area": "Mayfair", "nbikes": 0, "nempty": 21 }, "geometry": { "type": "Point", "coordinates": [ -0.150666888, 51.50686435 ] } },
{ "type": "Feature", "properties": { "id": 381, "name": "Charlotte Street", "area": "Fitzrovia", "nbikes": 0, "nempty": 13 }, "geometry": { "type": "Point", "coordinates": [ -0.13577731, 51.51953043 ] } },
{ "type": "Feature", "properties": { "id": 382, "name": "Farm Street", "area": "Mayfair", "nbikes": 0, "nempty": 14 }, "geometry": { "type": "Point", "coordinates": [ -0.14744969, 51.50935171 ] } },
{ "type": "Feature", "properties": { "id": 383, "name": "Frith Street", "area": "Soho", "nbikes": 0, "nempty": 17 }, "geometry": { "type": "Point", "coordinates": [ -0.13121385, 51.51310333 ] } },
{ "type": "Feature", "properties": { "id": 384, "name": "Marloes Road", "area": "Kensington", "nbikes": 7, "nempty": 7 }, "geometry": { "type": "Point", "coordinates": [ -0.192404, 51.496481 ] } },
{ "type": "Feature", "properties": { "id": 386, "name": "Moor Street", "area": "Soho", "nbikes": 0, "nempty": 16 }, "geometry": { "type": "Point", "coordinates": [ -0.130110822, 51.51352755 ] } },
{ "type": "Feature", "properties": { "id": 387, "name": "Fire Brigade Pier", "area": "Vauxhall", "nbikes": 9, "nempty": 21 }, "geometry": { "type": "Point", "coordinates": [ -0.121394101, 51.49369988 ] } },
{ "type": "Feature", "properties": { "id": 388, "name": "Southampton Street", "area": "Strand", "nbikes": 0, "nempty": 13 }, "geometry": { "type": "Point", "coordinates": [ -0.121723604, 51.51070161 ] } },
{ "type": "Feature", "properties": { "id": 389, "name": "Upper Grosvenor Street", "area": "Mayfair", "nbikes": 0, "nempty": 18 }, "geometry": { "type": "Point", "coordinates": [ -0.155757901, 51.51013066 ] } },
{ "type": "Feature", "properties": { "id": 390, "name": "Buxton Street 1", "area": "Shoreditch", "nbikes": 40, "nempty": 0 }, "geometry": { "type": "Point", "coordinates": [ -0.068856, 51.521776 ] } },
{ "type": "Feature", "properties": { "id": 391, "name": "Clifford Street", "area": "Mayfair", "nbikes": 0, "nempty": 27 }, "geometry": { "type": "Point", "coordinates": [ -0.142345694, 51.51066202 ] } },
{ "type": "Feature", "properties": { "id": 392, "name": "Imperial College", "area": "Knightsbridge", "nbikes": 3, "nempty": 18 }, "geometry": { "type": "Point", "coordinates": [ -0.179702476, 51.49942855 ] } },
{ "type": "Feature", "properties": { "id": 393, "name": "Snow Hill", "area": "Farringdon", "nbikes": 1, "nempty": 14 }, "geometry": { "type": "Point", "coordinates": [ -0.103604248, 51.51733427 ] } },
{ "type": "Feature", "properties": { "id": 394, "name": "Aberdeen Place", "area": "St. John's Wood", "nbikes": 18, "nempty": 0 }, "geometry": { "type": "Point", "coordinates": [ -0.176268, 51.524826 ] } },
{ "type": "Feature", "properties": { "id": 395, "name": "Cadogan Gardens", "area": "Sloane Square", "nbikes": 4, "nempty": 11 }, "geometry": { "type": "Point", "coordinates": [ -0.159919, 51.492462 ] } },
{ "type": "Feature", "properties": { "id": 396, "name": "Shouldham Street", "area": "Marylebone", "nbikes": 5, "nempty": 11 }, "geometry": { "type": "Point", "coordinates": [ -0.163609, 51.51809 ] } },
{ "type": "Feature", "properties": { "id": 397, "name": "Devonshire Terrace", "area": "Bayswater", "nbikes": 16, "nempty": 0 }, "geometry": { "type": "Point", "coordinates": [ -0.17977, 51.51348 ] } },
{ "type": "Feature", "properties": { "id": 398, "name": "Holland Park", "area": "Kensington", "nbikes": 7, "nempty": 23 }, "geometry": { "type": "Point", "coordinates": [ -0.200742, 51.502319 ] } },
{ "type": "Feature", "properties": { "id": 399, "name": "Brick Lane Market", "area": "Shoreditch", "nbikes": 20, "nempty": 3 }, "geometry": { "type": "Point", "coordinates": [ -0.071653961, 51.52261762 ] } },
{ "type": "Feature", "properties": { "id": 400, "name": "George Street", "area": "Marylebone", "nbikes": 0, "nempty": 26 }, "geometry": { "type": "Point", "coordinates": [ -0.154106, 51.517703 ] } },
{ "type": "Feature", "properties": { "id": 401, "name": "Columbia Road", "area": "Weavers", "nbikes": 18, "nempty": 6 }, "geometry": { "type": "Point", "coordinates": [ -0.075375, 51.528187 ] } },
{ "type": "Feature", "properties": { "id": 402, "name": "Penfold Street", "area": "Marylebone", "nbikes": 8, "nempty": 7 }, "geometry": { "type": "Point", "coordinates": [ -0.171681991, 51.52289229 ] } },
{ "type": "Feature", "properties": { "id": 403, "name": "George Place Mews", "area": "Marylebone", "nbikes": 1, "nempty": 15 }, "geometry": { "type": "Point", "coordinates": [ -0.158249929, 51.51689296 ] } },
{ "type": "Feature", "properties": { "id": 404, "name": "Palace Gate", "area": "Kensington Gardens", "nbikes": 12, "nempty": 3 }, "geometry": { "type": "Point", "coordinates": [ -0.184400221, 51.50204238 ] } },
{ "type": "Feature", "properties": { "id": 405, "name": "Gloucester Road Station", "area": "South Kensington", "nbikes": 9, "nempty": 5 }, "geometry": { "type": "Point", "coordinates": [ -0.18267094, 51.49418566 ] } },
{ "type": "Feature", "properties": { "id": 406, "name": "Speakers' Corner 2", "area": "Hyde Park", "nbikes": 3, "nempty": 20 }, "geometry": { "type": "Point", "coordinates": [ -0.159988, 51.512303 ] } },
{ "type": "Feature", "properties": { "id": 407, "name": "Speakers' Corner 1", "area": "Hyde Park", "nbikes": 7, "nempty": 10 }, "geometry": { "type": "Point", "coordinates": [ -0.160785, 51.51222 ] } },
{ "type": "Feature", "properties": { "id": 408, "name": "Paddington Green Police Station", "area": "Paddington", "nbikes": 14, "nempty": 26 }, "geometry": { "type": "Point", "coordinates": [ -0.170704337, 51.51994326 ] } },
{ "type": "Feature", "properties": { "id": 409, "name": "Strata", "area": "Southwark", "nbikes": 9, "nempty": 12 }, "geometry": { "type": "Point", "coordinates": [ -0.099828, 51.493146 ] } },
{ "type": "Feature", "properties": { "id": 410, "name": "Edgware Road Station", "area": "Paddington", "nbikes": 5, "nempty": 57 }, "geometry": { "type": "Point", "coordinates": [ -0.169774, 51.519968 ] } },
{ "type": "Feature", "properties": { "id": 411, "name": "Walworth Road", "area": "Southwark", "nbikes": 27, "nempty": 3 }, "geometry": { "type": "Point", "coordinates": [ -0.09968067, 51.49337264 ] } },
{ "type": "Feature", "properties": { "id": 412, "name": "Cleaver Street", "area": "Kennington", "nbikes": 16, "nempty": 1 }, "geometry": { "type": "Point", "coordinates": [ -0.110121, 51.488105 ] } },
{ "type": "Feature", "properties": { "id": 419, "name": "Chelsea Bridge", "area": "Pimlico", "nbikes": 12, "nempty": 3 }, "geometry": { "type": "Point", "coordinates": [ -0.149004, 51.485821 ] } },
{ "type": "Feature", "properties": { "id": 420, "name": "Southwark Station 1", "area": "Southwark", "nbikes": 36, "nempty": 1 }, "geometry": { "type": "Point", "coordinates": [ -0.105312, 51.504043 ] } },
{ "type": "Feature", "properties": { "id": 421, "name": "Southwark Station 2", "area": "Southwark", "nbikes": 23, "nempty": 21 }, "geometry": { "type": "Point", "coordinates": [ -0.104778, 51.504044 ] } },
{ "type": "Feature", "properties": { "id": 423, "name": "Eaton Square (South)", "area": "Belgravia", "nbikes": 1, "nempty": 30 }, "geometry": { "type": "Point", "coordinates": [ -0.15393398, 51.49456127 ] } },
{ "type": "Feature", "properties": { "id": 424, "name": "Ebury Bridge", "area": "Pimlico", "nbikes": 22, "nempty": 3 }, "geometry": { "type": "Point", "coordinates": [ -0.149186, 51.490491 ] } },
{ "type": "Feature", "properties": { "id": 425, "name": "Harrington Square 2", "area": "Camden Town", "nbikes": 31, "nempty": 7 }, "geometry": { "type": "Point", "coordinates": [ -0.139159, 51.533379 ] } },
{ "type": "Feature", "properties": { "id": 426, "name": "Vincent Street", "area": "Pimlico", "nbikes": 8, "nempty": 9 }, "geometry": { "type": "Point", "coordinates": [ -0.129925, 51.493072 ] } },
{ "type": "Feature", "properties": { "id": 427, "name": "Cheapside", "area": "Bank", "nbikes": 6, "nempty": 37 }, "geometry": { "type": "Point", "coordinates": [ -0.09294031, 51.51397065 ] } },
{ "type": "Feature", "properties": { "id": 428, "name": "Exhibition Road", "area": "Knightsbridge", "nbikes": 1, "nempty": 18 }, "geometry": { "type": "Point", "coordinates": [ -0.174554, 51.499917 ] } },
{ "type": "Feature", "properties": { "id": 430, "name": "South Parade", "area": "Chelsea", "nbikes": 8, "nempty": 9 }, "geometry": { "type": "Point", "coordinates": [ -0.17524, 51.48902 ] } },
{ "type": "Feature", "properties": { "id": 431, "name": "Crinan Street", "area": "King's Cross", "nbikes": 10, "nempty": 10 }, "geometry": { "type": "Point", "coordinates": [ -0.122203, 51.534474 ] } },
{ "type": "Feature", "properties": { "id": 432, "name": "Exhibition Road Museums", "area": "Knightsbridge", "nbikes": 0, "nempty": 20 }, "geometry": { "type": "Point", "coordinates": [ -0.173894, 51.496957 ] } },
{ "type": "Feature", "properties": { "id": 433, "name": "Wren Street", "area": "Holborn", "nbikes": 2, "nempty": 30 }, "geometry": { "type": "Point", "coordinates": [ -0.116279, 51.524564 ] } },
{ "type": "Feature", "properties": { "id": 435, "name": "Kennington Station", "area": "Kennington", "nbikes": 14, "nempty": 9 }, "geometry": { "type": "Point", "coordinates": [ -0.105593, 51.488852 ] } },
{ "type": "Feature", "properties": { "id": 436, "name": "Red Lion Street", "area": "Holborn", "nbikes": 0, "nempty": 36 }, "geometry": { "type": "Point", "coordinates": [ -0.11655, 51.51824 ] } },
{ "type": "Feature", "properties": { "id": 437, "name": "Vauxhall Walk", "area": "Vauxhall", "nbikes": 19, "nempty": 7 }, "geometry": { "type": "Point", "coordinates": [ -0.120903, 51.488124 ] } },
{ "type": "Feature", "properties": { "id": 439, "name": "Killick Street", "area": "Kings Cross", "nbikes": 17, "nempty": 5 }, "geometry": { "type": "Point", "coordinates": [ -0.118677, 51.5338 ] } },
{ "type": "Feature", "properties": { "id": 440, "name": "Kennington Oval", "area": "Oval", "nbikes": 24, "nempty": 8 }, "geometry": { "type": "Point", "coordinates": [ -0.113134, 51.483145 ] } },
{ "type": "Feature", "properties": { "id": 441, "name": "Sail Street", "area": "Vauxhall", "nbikes": 18, "nempty": 6 }, "geometry": { "type": "Point", "coordinates": [ -0.114605, 51.495656 ] } },
{ "type": "Feature", "properties": { "id": 442, "name": "Walmer Road", "area": "Notting Hill", "nbikes": 5, "nempty": 18 }, "geometry": { "type": "Point", "coordinates": [ -0.211358, 51.510101 ] } },
{ "type": "Feature", "properties": { "id": 443, "name": "Philpot Street", "area": "Whitechapel", "nbikes": 12, "nempty": 18 }, "geometry": { "type": "Point", "coordinates": [ -0.058641, 51.515256 ] } },
{ "type": "Feature", "properties": { "id": 444, "name": "Bethnal Green Gardens", "area": "Bethnal Green", "nbikes": 5, "nempty": 19 }, "geometry": { "type": "Point", "coordinates": [ -0.055312, 51.52568 ] } },
{ "type": "Feature", "properties": { "id": 445, "name": "Cheshire Street", "area": "Bethnal Green", "nbikes": 28, "nempty": 0 }, "geometry": { "type": "Point", "coordinates": [ -0.065076, 51.52388 ] } },
{ "type": "Feature", "properties": { "id": 446, "name": "York Hall", "area": "Bethnal Green", "nbikes": 24, "nempty": 3 }, "geometry": { "type": "Point", "coordinates": [ -0.055894, 51.528936 ] } },
{ "type": "Feature", "properties": { "id": 447, "name": "Jubilee Crescent", "area": "Cubitt Town", "nbikes": 28, "nempty": 26 }, "geometry": { "type": "Point", "coordinates": [ -0.007542, 51.493381 ] } },
{ "type": "Feature", "properties": { "id": 448, "name": "Fishermans Walk West", "area": "Canary Wharf", "nbikes": 0, "nempty": 35 }, "geometry": { "type": "Point", "coordinates": [ -0.02296, 51.50623 ] } },
{ "type": "Feature", "properties": { "id": 449, "name": "Shadwell Station", "area": "Shadwell", "nbikes": 31, "nempty": 2 }, "geometry": { "type": "Point", "coordinates": [ -0.057159, 51.511088 ] } },
{ "type": "Feature", "properties": { "id": 450, "name": "Jubilee Street", "area": "Stepney", "nbikes": 28, "nempty": 0 }, "geometry": { "type": "Point", "coordinates": [ -0.053177, 51.515975 ] } },
{ "type": "Feature", "properties": { "id": 451, "name": "Hermitage Court", "area": "Wapping", "nbikes": 14, "nempty": 2 }, "geometry": { "type": "Point", "coordinates": [ -0.063531, 51.504719 ] } },
{ "type": "Feature", "properties": { "id": 452, "name": "St Katharines Way", "area": "Tower", "nbikes": 8, "nempty": 16 }, "geometry": { "type": "Point", "coordinates": [ -0.070542, 51.505697 ] } },
{ "type": "Feature", "properties": { "id": 453, "name": "Garnet Street", "area": "Shadwell", "nbikes": 24, "nempty": 0 }, "geometry": { "type": "Point", "coordinates": [ -0.055167, 51.508447 ] } },
{ "type": "Feature", "properties": { "id": 454, "name": "Napier Avenue", "area": "Millwall", "nbikes": 14, "nempty": 5 }, "geometry": { "type": "Point", "coordinates": [ -0.021582, 51.487679 ] } },
{ "type": "Feature", "properties": { "id": 455, "name": "East Ferry Road", "area": "Cubitt Town", "nbikes": 13, "nempty": 4 }, "geometry": { "type": "Point", "coordinates": [ -0.014409, 51.49447 ] } },
{ "type": "Feature", "properties": { "id": 456, "name": "Parkway", "area": "Camden Town", "nbikes": 23, "nempty": 9 }, "geometry": { "type": "Point", "coordinates": [ -0.144664, 51.538071 ] } },
{ "type": "Feature", "properties": { "id": 457, "name": "Castlehaven Road", "area": "Camden Town", "nbikes": 27, "nempty": 1 }, "geometry": { "type": "Point", "coordinates": [ -0.145393, 51.542138 ] } },
{ "type": "Feature", "properties": { "id": 458, "name": "Wapping Lane", "area": "Wapping", "nbikes": 26, "nempty": 1 }, "geometry": { "type": "Point", "coordinates": [ -0.057544, 51.504749 ] } },
{ "type": "Feature", "properties": { "id": 459, "name": "Gun Makers Lane", "area": "Old Ford", "nbikes": 8, "nempty": 9 }, "geometry": { "type": "Point", "coordinates": [ -0.03338, 51.535179 ] } },
{ "type": "Feature", "properties": { "id": 460, "name": "Burdett Road", "area": "Mile End", "nbikes": 16, "nempty": 16 }, "geometry": { "type": "Point", "coordinates": [ -0.029138, 51.516196 ] } },
{ "type": "Feature", "properties": { "id": 461, "name": "Aston Street", "area": "Stepney", "nbikes": 10, "nempty": 16 }, "geometry": { "type": "Point", "coordinates": [ -0.038775, 51.516 ] } },
{ "type": "Feature", "properties": { "id": 462, "name": "Bonny Street", "area": "Camden Town", "nbikes": 40, "nempty": 5 }, "geometry": { "type": "Point", "coordinates": [ -0.138853, 51.541603 ] } },
{ "type": "Feature", "properties": { "id": 463, "name": "Thurtle Road", "area": "Haggerston", "nbikes": 18, "nempty": 4 }, "geometry": { "type": "Point", "coordinates": [ -0.071881, 51.534776 ] } },
{ "type": "Feature", "properties": { "id": 464, "name": "St. Mary and St. Michael Church", "area": "Stepney", "nbikes": 24, "nempty": 0 }, "geometry": { "type": "Point", "coordinates": [ -0.052099, 51.51417 ] } },
{ "type": "Feature", "properties": { "id": 465, "name": "Pitfield Street (North)", "area": "Hoxton", "nbikes": 27, "nempty": 0 }, "geometry": { "type": "Point", "coordinates": [ -0.08249, 51.53558 ] } },
{ "type": "Feature", "properties": { "id": 466, "name": "Whiston Road", "area": "Haggerston", "nbikes": 12, "nempty": 9 }, "geometry": { "type": "Point", "coordinates": [ -0.076341, 51.534464 ] } },
{ "type": "Feature", "properties": { "id": 467, "name": "Southern Grove", "area": "Bow", "nbikes": 3, "nempty": 14 }, "geometry": { "type": "Point", "coordinates": [ -0.030556, 51.523538 ] } },
{ "type": "Feature", "properties": { "id": 468, "name": "Cantrell Road", "area": "Bow", "nbikes": 7, "nempty": 17 }, "geometry": { "type": "Point", "coordinates": [ -0.022694, 51.521564 ] } },
{ "type": "Feature", "properties": { "id": 469, "name": "Lindfield Street", "area": "Poplar", "nbikes": 27, "nempty": 16 }, "geometry": { "type": "Point", "coordinates": [ -0.020467, 51.513757 ] } },
{ "type": "Feature", "properties": { "id": 470, "name": "Mostyn Grove", "area": "Bow", "nbikes": 35, "nempty": 10 }, "geometry": { "type": "Point", "coordinates": [ -0.025492, 51.530535 ] } },
{ "type": "Feature", "properties": { "id": 471, "name": "Hewison Street", "area": "Old Ford", "nbikes": 1, "nempty": 16 }, "geometry": { "type": "Point", "coordinates": [ -0.028155, 51.533283 ] } },
{ "type": "Feature", "properties": { "id": 472, "name": "Malmesbury Road", "area": "Bow", "nbikes": 8, "nempty": 13 }, "geometry": { "type": "Point", "coordinates": [ -0.027616, 51.529452 ] } },
{ "type": "Feature", "properties": { "id": 473, "name": "Millharbour", "area": "Millwall", "nbikes": 3, "nempty": 16 }, "geometry": { "type": "Point", "coordinates": [ -0.019355, 51.496137 ] } },
{ "type": "Feature", "properties": { "id": 474, "name": "Castalia Square", "area": "Cubitt Town", "nbikes": 16, "nempty": 23 }, "geometry": { "type": "Point", "coordinates": [ -0.011457, 51.498125 ] } },
{ "type": "Feature", "properties": { "id": 475, "name": "Lightermans Road", "area": "Millwall", "nbikes": 4, "nempty": 52 }, "geometry": { "type": "Point", "coordinates": [ -0.020157, 51.499041 ] } },
{ "type": "Feature", "properties": { "id": 476, "name": "Stebondale Street", "area": "Cubitt Town", "nbikes": 25, "nempty": 4 }, "geometry": { "type": "Point", "coordinates": [ -0.009205, 51.489096 ] } },
{ "type": "Feature", "properties": { "id": 477, "name": "Spindrift Avenue", "area": "Millwall", "nbikes": 31, "nempty": 5 }, "geometry": { "type": "Point", "coordinates": [ -0.018716, 51.49109 ] } },
{ "type": "Feature", "properties": { "id": 478, "name": "Stepney Green Station", "area": "Stepney", "nbikes": 17, "nempty": 0 }, "geometry": { "type": "Point", "coordinates": [ -0.04667, 51.521889 ] } },
{ "type": "Feature", "properties": { "id": 479, "name": "Pott Street", "area": "Bethnal Green", "nbikes": 15, "nempty": 4 }, "geometry": { "type": "Point", "coordinates": [ -0.058005, 51.527152 ] } },
{ "type": "Feature", "properties": { "id": 480, "name": "Flamborough Street", "area": "Limehouse", "nbikes": 24, "nempty": 0 }, "geometry": { "type": "Point", "coordinates": [ -0.0389866, 51.5128711 ] } },
{ "type": "Feature", "properties": { "id": 481, "name": "Saunders Ness Road", "area": "Cubitt Town", "nbikes": 30, "nempty": 2 }, "geometry": { "type": "Point", "coordinates": [ -0.009001, 51.487129 ] } },
{ "type": "Feature", "properties": { "id": 482, "name": "Thornfield House", "area": "Poplar", "nbikes": 11, "nempty": 15 }, "geometry": { "type": "Point", "coordinates": [ -0.02377, 51.509843 ] } },
{ "type": "Feature", "properties": { "id": 483, "name": "Albert Gardens", "area": "Stepney", "nbikes": 25, "nempty": 7 }, "geometry": { "type": "Point", "coordinates": [ -0.047784, 51.51328 ] } },
{ "type": "Feature", "properties": { "id": 484, "name": "Bromley High Street", "area": "Bromley", "nbikes": 16, "nempty": 4 }, "geometry": { "type": "Point", "coordinates": [ -0.013258, 51.528828 ] } },
{ "type": "Feature", "properties": { "id": 485, "name": "Old Ford Road", "area": "Bethnal Green", "nbikes": 15, "nempty": 8 }, "geometry": { "type": "Point", "coordinates": [ -0.048017, 51.531127 ] } },
{ "type": "Feature", "properties": { "id": 486, "name": "Granby Street", "area": "Shoreditch", "nbikes": 34, "nempty": 2 }, "geometry": { "type": "Point", "coordinates": [ -0.069543, 51.525645 ] } },
{ "type": "Feature", "properties": { "id": 487, "name": "Canton Street", "area": "Poplar", "nbikes": 20, "nempty": 3 }, "geometry": { "type": "Point", "coordinates": [ -0.025626, 51.511811 ] } },
{ "type": "Feature", "properties": { "id": 488, "name": "Reardon Street", "area": "Wapping", "nbikes": 20, "nempty": 0 }, "geometry": { "type": "Point", "coordinates": [ -0.058681, 51.506946 ] } },
{ "type": "Feature", "properties": { "id": 489, "name": "Christian Street", "area": "Whitechapel", "nbikes": 25, "nempty": 9 }, "geometry": { "type": "Point", "coordinates": [ -0.064094, 51.513074 ] } },
{ "type": "Feature", "properties": { "id": 490, "name": "Pennington Street", "area": "Wapping", "nbikes": 29, "nempty": 16 }, "geometry": { "type": "Point", "coordinates": [ -0.065006, 51.508622 ] } },
{ "type": "Feature", "properties": { "id": 491, "name": "Queen Marys", "area": "Mile End", "nbikes": 13, "nempty": 30 }, "geometry": { "type": "Point", "coordinates": [ -0.041378, 51.522507 ] } },
{ "type": "Feature", "properties": { "id": 492, "name": "The Green Bridge", "area": "Mile End", "nbikes": 51, "nempty": 9 }, "geometry": { "type": "Point", "coordinates": [ -0.03562, 51.524677 ] } },
{ "type": "Feature", "properties": { "id": 494, "name": "South Quay East", "area": "Canary Wharf", "nbikes": 0, "nempty": 35 }, "geometry": { "type": "Point", "coordinates": [ -0.016251, 51.50196 ] } },
{ "type": "Feature", "properties": { "id": 495, "name": "Bow Church Station", "area": "Bow", "nbikes": 31, "nempty": 7 }, "geometry": { "type": "Point", "coordinates": [ -0.018703, 51.528169 ] } },
{ "type": "Feature", "properties": { "id": 496, "name": "Devons Road", "area": "Bow", "nbikes": 8, "nempty": 30 }, "geometry": { "type": "Point", "coordinates": [ -0.015578, 51.52512 ] } },
{ "type": "Feature", "properties": { "id": 498, "name": "Bow Road Station", "area": "Bow", "nbikes": 8, "nempty": 33 }, "geometry": { "type": "Point", "coordinates": [ -0.025296, 51.527058 ] } },
{ "type": "Feature", "properties": { "id": 499, "name": "Furze Green", "area": "Bow", "nbikes": 10, "nempty": 24 }, "geometry": { "type": "Point", "coordinates": [ -0.021345, 51.519265 ] } },
{ "type": "Feature", "properties": { "id": 501, "name": "Cephas Street", "area": "Bethnal Green", "nbikes": 20, "nempty": 4 }, "geometry": { "type": "Point", "coordinates": [ -0.054883, 51.522561 ] } },
{ "type": "Feature", "properties": { "id": 502, "name": "South Quay West", "area": "Canary Wharf", "nbikes": 0, "nempty": 27 }, "geometry": { "type": "Point", "coordinates": [ -0.022702, 51.502635 ] } },
{ "type": "Feature", "properties": { "id": 503, "name": "Cleveland Way", "area": "Bethnal Green", "nbikes": 24, "nempty": 11 }, "geometry": { "type": "Point", "coordinates": [ -0.051394, 51.520893 ] } },
{ "type": "Feature", "properties": { "id": 504, "name": "St John's Park", "area": "Cubitt Town", "nbikes": 29, "nempty": 0 }, "geometry": { "type": "Point", "coordinates": [ -0.009506, 51.496454 ] } },
{ "type": "Feature", "properties": { "id": 505, "name": "Ackroyd Drive", "area": "Bow", "nbikes": 1, "nempty": 28 }, "geometry": { "type": "Point", "coordinates": [ -0.026768, 51.520398 ] } },
{ "type": "Feature", "properties": { "id": 506, "name": "Bell Lane", "area": "Liverpool Street", "nbikes": 3, "nempty": 20 }, "geometry": { "type": "Point", "coordinates": [ -0.075855, 51.517475 ] } },
{ "type": "Feature", "properties": { "id": 507, "name": "Clarkson Street", "area": "Bethnal Green", "nbikes": 22, "nempty": 9 }, "geometry": { "type": "Point", "coordinates": [ -0.059091, 51.528692 ] } },
{ "type": "Feature", "properties": { "id": 508, "name": "Fournier Street", "area": "Whitechapel", "nbikes": 1, "nempty": 15 }, "geometry": { "type": "Point", "coordinates": [ -0.074431, 51.519362 ] } },
{ "type": "Feature", "properties": { "id": 509, "name": "Fore Street", "area": "Guildhall", "nbikes": 0, "nempty": 18 }, "geometry": { "type": "Point", "coordinates": [ -0.090075, 51.517842 ] } },
{ "type": "Feature", "properties": { "id": 510, "name": "Westferry DLR", "area": "Limehouse", "nbikes": 0, "nempty": 40 }, "geometry": { "type": "Point", "coordinates": [ -0.025996, 51.509303 ] } },
{ "type": "Feature", "properties": { "id": 511, "name": "Sutton Street", "area": "Shadwell", "nbikes": 14, "nempty": 19 }, "geometry": { "type": "Point", "coordinates": [ -0.053558, 51.511066 ] } },
{ "type": "Feature", "properties": { "id": 512, "name": "Pritchard's Road", "area": "Bethnal Green", "nbikes": 26, "nempty": 1 }, "geometry": { "type": "Point", "coordinates": [ -0.06142, 51.532091 ] } },
{ "type": "Feature", "properties": { "id": 513, "name": "Watney Market", "area": "Stepney", "nbikes": 24, "nempty": 25 }, "geometry": { "type": "Point", "coordinates": [ -0.055656, 51.5142228 ] } },
{ "type": "Feature", "properties": { "id": 514, "name": "Portman Square", "area": "Marylebone", "nbikes": 1, "nempty": 16 }, "geometry": { "type": "Point", "coordinates": [ -0.155525, 51.516204 ] } },